{"version": 0.6, "generator": "Overpass API 0.7.59.4 36d058c8", "osm3s": {"timestamp_osm_base": "2023-03-30T11:36:39Z", "copyright": "The data included in this document is from www.openstreetmap.org. The data is made available under ODbL."}, "elements": [{"type": "node", "id": 24958713, "lat": 55.6892934, "lon": 12.5578332, "tags": {"amenity": "pub", "fvst:name": "Cerevisia", "fvst:navnelbnr": "111614", "name": "\u00d8lbaren", "opening_hours": "Mo 21:00-01:00, Tu-We 16:00-01:00, Th 16:00-02:00, Fr 15:00-02:00, Sa 13:00-02:00, Su 13:00-23:00", "phone": "+45 35354534", "ref:DK:cvr": "26748097", "smoking": "no", "website": "http://oelbaren.dk/"}}, {"type": "node", "id": 25440922, "lat": 55.6834082, "lon": 12.5651843, "tags": {"amenity": "pub", "fvst:navnelbnr": "1253893", "name": "Banker\u00e5t", "opening_hours": "Mo-Fr 09:30-24:00;Sa-Su 10:30-24:00", "opening_hours:url": "https://www.facebook.com/bankeraat/info", "phone": "+45 33 93 69 88", "ref:DK:cvr": "41544988", "ref:DK:cvr:pnummer": "1028568971", "smoking": "no", "website": "http://www.bankeraat.dk", "wheelchair": "no"}}, {"type": "node", "id": 25869217, "lat": 55.6864894, "lon": 12.5874331, "tags": {"amenity": "bar", "fvst:navnelbnr": "501959", "name": "Black Swan", "note": "Beer bar, 14 taps.", "opening_hours": "Mo-We 15:00-01:00, Th-Sa 15:00-02:00, Su 15:00-23:00", "ref:DK:cvr": "33947178", "ref:DK:cvr:pnummer": "1017132365", "smoking": "outside", "toilets:wheelchair": "no", "website": "http://www.blackswanbar.dk/", "wheelchair": "no"}}, {"type": "node", "id": 25904721, "lat": 55.6996104, "lon": 12.5467101, "tags": {"amenity": "pub", "fvst:navnelbnr": "1256497", "name": "Caf\u00e9 Viking", "opening_hours": "Mo-Sa 09:00-02:00, Su 09:00-20:00", "phone": "+45 35831493", "ref:DK:cvr": "41351187", "ref:DK:cvr:pnummer": "1025823806", "website": "http://www.cafeviking.dk", "wheelchair": "limited"}}, {"type": "node", "id": 26053041, "lat": 55.6736632, "lon": 12.5921433, "tags": {"amenity": "pub", "fvst:navnelbnr": "113481", "name": "Caf\u00e9 St\u00e6rkodder", "ref:DK:cvr": "27087957", "ref:DK:cvr:pnummer": "1010161335", "wheelchair": "limited", "wikidata": "Q21710338"}}, {"type": "node", "id": 277694702, "lat": 55.6770916, "lon": 12.532119, "tags": {"amenity": "pub", "fvst:navnelbnr": "115321", "name": "Cafe Intime", "opening_hours": "Mo-Su 16:00 - 02:00", "phone": "+45 38 34 19 58", "ref:DK:cvr": "27979440", "ref:DK:cvr:pnummer": "1010696328", "toilets": "yes", "website": "http://www.cafeintime.dk/", "wikidata": "Q12305023", "wikipedia": "da:Cafe Intime"}}, {"type": "node", "id": 277703258, "lat": 55.6752681, "lon": 12.5328906, "tags": {"alt_name": "Psykopaten", "amenity": "pub", "fvst:navnelbnr": "111210", "name": "All\u00e9enberg", "opening_hours": "Tu-Sa 22:00-05:00", "outdoor_seating": "yes", "payment:credit_cards": "yes", "phone": "+45 33254442", "ref:DK:cvr": "25689097", "ref:DK:cvr:pnummer": "1007991440", "toilets": "yes", "website": "http://www.alleenberg.dk/", "wheelchair": "no"}}, {"type": "node", "id": 278380921, "lat": 55.6789275, "lon": 12.5274752, "tags": {"amenity": "pub", "fvst:navnelbnr": "921122", "name": "Cafe Svejk", "opening_hours": "Su-Mo 12:00-24:00;Tu-Sa 12:00-02:00", "phone": "+45 38862560", "ref:DK:cvr": "40692932", "ref:DK:cvr:pnummer": "1024914271", "wheelchair": "yes"}}, {"type": "node", "id": 278389273, "lat": 55.6742295, "lon": 12.5399431, "tags": {"amenity": "pub", "fvst:navnelbnr": "738934", "name": "Promenaden", "opening_hours": "Mo-We 11:00-23:00; Th-Sa 11:00-24:00; Su 11:00-18:00", "ref:DK:cvr": "39126680", "ref:DK:cvr:pnummer": "1023555944", "wheelchair": "no"}}, {"type": "node", "id": 279143817, "lat": 55.6836628, "lon": 12.5245604, "tags": {"amenity": "pub", "fvst:navnelbnr": "111869", "name": "Bartof Caf\u00e9", "outdoor_seating": "yes", "phone": "+45 38 86 90 67", "ref:DK:cvr": "28000243", "ref:DK:cvr:pnummer": "1010921615", "smoking": "no", "website": "http://bartofcafe.dk", "wheelchair": "no"}}, {"type": "node", "id": 279144098, "lat": 55.6855209, "lon": 12.5382279, "tags": {"amenity": "pub", "fvst:navnelbnr": "112209", "name": "London Pub", "ref:DK:cvr": "30725662", "ref:DK:cvr:pnummer": "1013479026", "wheelchair": "no"}}, {"type": "node", "id": 279472194, "lat": 55.6763998, "lon": 12.5733293, "tags": {"amenity": "bar", "facebook": "https://www.facebook.com/dropinnmusic/", "fvst:navnelbnr": "795821", "name": "Drop Inn", "opening_hours": "Mo,Tu 14:00-24:00, We,Th 14:00-02:00, Fr,Sa 14:00-03:00; Su off", "outdoor_seating": "yes", "phone": "+45 33112404", "ref:DK:cvr": "38578553", "ref:DK:cvr:pnummer": "1022372145", "toilets": "yes", "website": "https://drop-inn.dk/", "wheelchair": "limited"}}, {"type": "node", "id": 279690426, "lat": 55.6782361, "lon": 12.5668224, "tags": {"amenity": "pub", "facebook": "https://www.facebook.com/pubogsport/", "fvst:navnelbnr": "112682", "name": "Pub & Sport", "opening_hours": "Mo-Th 16:00-01:00, Fr 15:00-03:00,Sa 13:00-03:00,Su 14:00-23:00", "phone": "+45 33150810", "ref:DK:cvr": "28323565", "ref:DK:cvr:pnummer": "1011061059", "website": "http://www.pubogsport.dk", "wheelchair": "limited"}}, {"type": "node", "id": 279697161, "lat": 55.7047957, "lon": 12.5619073}, {"type": "node", "id": 279901270, "lat": 55.6786581, "lon": 12.5325728, "tags": {"amenity": "bar", "fvst:navnelbnr": "719930", "name": "The Old Irish Pub", "payment:credit_cards": "yes", "phone": "+45 5189 7713", "ref:DK:cvr": "35028692", "ref:DK:cvr:pnummer": "1022691070", "toilets": "yes", "website": "https://oldirishpub.dk/", "wheelchair": "yes"}}, {"type": "node", "id": 280530612, "lat": 55.671781, "lon": 12.5548963, "tags": {"amenity": "pub", "fvst:name": "Caf\u00e9 BarBar Bar", "fvst:navnelbnr": "672161", "name": "Barbar Bar", "ref:DK:cvr": "37747904", "ref:DK:cvr:pnummer": "1022052566", "wheelchair": "no"}}, {"type": "node", "id": 280790084, "lat": 55.677942, "lon": 12.5768752, "tags": {"amenity": "pub", "fvst:navnelbnr": "114203", "name": "Lord Nelson", "name:es": "Lord Nelson Bar", "opening_hours": "Mo 15:30-24:00, Tu-We 15:30-02:00, Th 15:30-03:00, Fr 15:00-05:00, Sa 14:00-05:00", "phone": "+45 33 93 93 94", "ref:DK:cvr": "28712057", "ref:DK:cvr:pnummer": "1011345367", "website": "http://www.lordnelson.dk"}}, {"type": "node", "id": 280790473, "lat": 55.6786922, "lon": 12.5732662, "tags": {"amenity": "pub", "fvst:navnelbnr": "117090", "name": "Charlie Scotts", "ref:DK:cvr": "29838593", "ref:DK:cvr:pnummer": "1012533914", "toilets": "yes"}}, {"type": "node", "id": 280809193, "lat": 55.6691735, "lon": 12.5802893, "tags": {"amenity": "pub", "fvst:navnelbnr": "721054", "name": "Cafe Langebro", "opening_hours": "Mo-Th 11:00-02:00, Fr-Sa 11:00-03:00, Su 11:00-20:00", "phone": "+45 32 95 85 91", "ref:DK:cvr": "27040365", "ref:DK:cvr:pnummer": "1000441581", "website": "http://cafelangebro.dk"}}, {"type": "node", "id": 281062886, "lat": 55.681009, "lon": 12.5806605, "tags": {"amenity": "pub", "fvst:navnelbnr": "555264", "name": "Zoo Bar", "opening_hours": "Th-Sa 20:00-05:00", "ref:DK:cvr": "34617775", "ref:DK:cvr:pnummer": "1017953679", "website": "https://www.zoocopenhagen.dk/", "wheelchair": "limited"}}, {"type": "node", "id": 281063017, "lat": 55.6806132, "lon": 12.5802876, "tags": {"amenity": "pub", "fvst:name": "Cafe CharlieS", "fvst:navnelbnr": "111222", "name": "Charlie's Bar", "ref:DK:cvr": "25091930", "smoking": "no", "wheelchair": "no"}}, {"type": "node", "id": 281063934, "lat": 55.680579, "lon": 12.588872, "tags": {"amenity": "bar", "fvst:navnelbnr": "112601", "name": "Klods Hans", "phone": "+45 33339091", "ref:DK:cvr": "21539244", "ref:DK:cvr:pnummer": "1005005370", "wheelchair": "limited"}}, {"type": "node", "id": 281539863, "lat": 55.6759526, "lon": 12.567219, "tags": {"amenity": "pub", "fvst:navnelbnr": "115440", "name": "The Scottish Pub", "opening_hours": "Mo-Th 12:00-03:00; Fr-Sa 12:00-05:00; Su 12:00-02:00", "phone": "+4533159243", "ref:DK:cvr": "20288132", "ref:DK:cvr:pnummer": "1004222759", "website": "https://thescottishpub.dk/", "wheelchair": "yes"}}, {"type": "node", "id": 281787637, "lat": 55.6771072, "lon": 12.5694984, "tags": {"amenity": "pub", "fvst:name": "Brew Pub K\u00f8benhavn, Bryggeri", "fvst:navnelbnr": "116483", "microbrewery": "yes", "name": "Brew Pub", "ref:DK:cvr": "28110324", "ref:DK:cvr:pnummer": "1010771060", "smoking": "no", "website": "https://brewpub.dk"}}, {"type": "node", "id": 281998525, "lat": 55.6864556, "lon": 12.5579695, "tags": {"amenity": "bar", "fvst:navnelbnr": "567872", "internet_access": "wlan", "name": "Bl\u00e5g\u00e5rds Apotek", "opening_hours": "Mo-Th 14:00-02:00, Fr-Su 12:00-02:00", "ref:DK:cvr": "31896738", "ref:DK:cvr:pnummer": "1014980128", "website": "http://kroteket.dk/"}}, {"type": "node", "id": 300410990, "lat": 55.6810855, "lon": 12.5804647, "tags": {"amenity": "bar", "fvst:navnelbnr": "1260181", "name": "The Moose", "ref:DK:cvr": "43370545", "ref:DK:cvr:pnummer": "1028388280", "smoking": "yes", "website": "https://www.themoosebar.dk/"}}, {"type": "node", "id": 313730277, "lat": 55.6740554, "lon": 12.5916958, "tags": {"amenity": "bar", "fvst:navnelbnr": "111916", "name": "Eiffel Bar", "ref:DK:cvr": "26110580", "ref:DK:cvr:pnummer": "1008523998", "smoking": "yes", "wheelchair": "no"}}, {"type": "node", "id": 316122207, "lat": 55.6814563, "lon": 12.5495147, "tags": {"amenity": "pub", "fvst:navnelbnr": "955287", "name": "Bodega 48", "ref:DK:cvr": "36152680"}}, {"type": "node", "id": 332573745, "lat": 55.7127896, "lon": 12.5593766, "tags": {"amenity": "pub", "fvst:navnelbnr": "112634", "name": "Polar Bodega", "ref:DK:cvr": "32244874", "ref:DK:cvr:pnummer": "1015410937", "wheelchair": "no"}}, {"type": "node", "id": 335962972, "lat": 55.6953457, "lon": 12.543356, "tags": {"amenity": "pub", "fvst:navnelbnr": "720885", "indoor_seating": "yes", "internet_access": "wlan", "internet_access:fee": "no", "name": "Caf\u00e9 Stefanshus", "opening_hours": "Mo-We 08:00-01:00,Th-Sa 08:00-01:00,Su 11:00-23:00", "outdoor_seating": "yes", "ref:DK:cvr": "35240586", "ref:DK:cvr:pnummer": "1018480081", "website": "http://www.acedesign.dk/stefanshus/", "wheelchair": "limited"}}, {"type": "node", "id": 413370338, "lat": 55.6810813, "lon": 12.5798685, "tags": {"alt_name": "Sjus", "amenity": "bar", "fvst:navnelbnr": "119840", "name": "Sjus Bar", "ref:DK:cvr": "31374057", "website": "https://sjusbar.dk/"}}, {"type": "node", "id": 417138238, "lat": 55.6503992, "lon": 12.5274396, "tags": {"amenity": "pub", "fvst:navnelbnr": "112612", "name": "Caf\u00e9 Ellebo", "ref:DK:cvr": "75890613", "ref:DK:cvr:pnummer": "1002473597"}}, {"type": "node", "id": 417144153, "lat": 55.6497547, "lon": 12.5287561, "tags": {"amenity": "bar", "fvst:navnelbnr": "803789", "name": "Sj\u00e6l\u00f8r Bodega", "ref:DK:cvr": "38231332", "ref:DK:cvr:pnummer": "1021979836"}}, {"type": "node", "id": 417180523, "lat": 55.6481432, "lon": 12.5293861, "tags": {"amenity": "pub", "fvst:navnelbnr": "527448", "name": "Mozarts Bodega", "ref:DK:cvr": "34352445", "ref:DK:cvr:pnummer": "1017513202"}}, {"type": "node", "id": 427561448, "lat": 55.7019604, "lon": 12.5583462}, {"type": "node", "id": 427561450, "lat": 55.7019469, "lon": 12.5588374}, {"type": "node", "id": 427561453, "lat": 55.702077, "lon": 12.5584797}, {"type": "node", "id": 428734579, "lat": 55.6809434, "lon": 12.5739275, "tags": {"amenity": "pub", "fvst:navnelbnr": "111501", "name": "Caf\u00e9 Halvvejen", "outdoor_seating": "yes", "phone": "+45 33119112", "ref:DK:cvr": "34483795", "ref:DK:cvr:pnummer": "1017639249", "smoking": "yes", "website": "http://www.cafehalvvejen.dk/", "wheelchair": "no"}}, {"type": "node", "id": 442948295, "lat": 55.6632055, "lon": 12.5421603, "tags": {"air_conditioning": "no", "amenity": "bar", "check_date:opening_hours": "2022-08-17", "indoor_seating": "yes", "name": "Ramblin", "opening_hours:signed": "no", "outdoor_seating": "yes", "table_soccer": "french"}}, {"type": "node", "id": 448276155, "lat": 55.6696051, "lon": 12.4918721, "tags": {"amenity": "pub", "fvst:navnelbnr": "115750", "name": "Bodega Teglsk\u00e6gget", "ref:DK:cvr": "26773466", "ref:DK:cvr:pnummer": "1012683118"}}, {"type": "node", "id": 496287667, "lat": 55.6653765, "lon": 12.5171005, "tags": {"amenity": "pub", "fvst:navnelbnr": "714464", "name": "M\u00f8lle Cafeen", "opening_hours:signed": "no", "ref:DK:cvr": "10092337", "ref:DK:cvr:pnummer": "1000016592", "wheelchair": "no"}}, {"type": "node", "id": 496327697, "lat": 55.6652831, "lon": 12.5164963, "tags": {"amenity": "pub", "fvst:navnelbnr": "554771", "man_made": "surveillance", "name": "Tofteg\u00e5rds Bodega", "opening_hours": "Mo-Su 10:00-02:00", "ref:DK:cvr": "68899028", "ref:DK:cvr:pnummer": "1002283329", "wheelchair": "limited"}}, {"type": "node", "id": 496331430, "lat": 55.663277, "lon": 12.514473, "tags": {"amenity": "pub", "fvst:navnelbnr": "113831", "name": "Valby Borger Kro", "opening_hours": "Mo-We 14:00-20:00; Th-Fr 14:00-24:00", "ref:DK:cvr": "19915875", "ref:DK:cvr:pnummer": "1004052886"}}, {"type": "node", "id": 515718720, "lat": 55.6821362, "lon": 12.574042, "tags": {"amenity": "pub", "fvst:navnelbnr": "923994", "indoor_seating": "yes", "name": "Hvide Lam", "opening_hours": "Mo-We 11:00+; Su,PH 12:00+", "outdoor_seating": "yes", "ref:DK:cvr": "31625246", "ref:DK:cvr:pnummer": "1025167747", "smoking": "yes", "website": "https://hvide-lam.dk/", "wikidata": "Q27235433"}}, {"type": "node", "id": 552383262, "lat": 55.70499, "lon": 12.4940637, "tags": {"amenity": "pub", "fvst:navnelbnr": "555266", "name": "Br\u00f8nsh\u00f8j bodega", "ref:DK:cvr": "36112026", "ref:DK:cvr:pnummer": "1019793067"}}, {"type": "node", "id": 552383377, "lat": 55.7048633, "lon": 12.4974172, "tags": {"amenity": "pub", "fvst:navnelbnr": "764198", "name": "Gerts vinstue", "ref:DK:cvr": "39568497", "ref:DK:cvr:pnummer": "1023666622"}}, {"type": "node", "id": 552383384, "lat": 55.7049562, "lon": 12.4969562, "tags": {"amenity": "pub", "fvst:navnelbnr": "116796", "name": "Vi ses hos Berg", "phone": "+45 38281108", "ref:DK:cvr": "25521021", "ref:DK:cvr:pnummer": "1015098054"}}, {"type": "node", "id": 571267064, "lat": 55.6826112, "lon": 12.4914551, "tags": {"amenity": "bar", "fvst:navnelbnr": "736025", "name": "Snoopy Bodega", "opening_hours": "08:00-02:00", "phone": "+45 38712698", "ref:DK:cvr": "31633605", "ref:DK:cvr:pnummer": "1014667276", "smoking": "yes", "website": "https://snoopy-bodega.business.site/"}}, {"type": "node", "id": 664252429, "lat": 55.6979488, "lon": 12.5449768, "tags": {"amenity": "bar", "check_date": "2020-12-17", "fvst:name": "RESTAURATIONSANPARTSELSKABET RYLA Karusellen", "fvst:navnelbnr": "112137", "name": "Karrusellen", "opening_hours": "09:00-02:00", "ref:DK:cvr": "18125773", "ref:DK:cvr:pnummer": "1013141068", "smoking": "yes"}}, {"type": "node", "id": 664252430, "lat": 55.69858, "lon": 12.545621, "tags": {"amenity": "pub", "fvst:navnelbnr": "662868", "name": "Caf\u00e9 \u00c6gir", "opening_hours": "Su-Tu 10:00-24:00; We-Sa 10:00-02:00", "ref:DK:cvr": "34584109", "ref:DK:cvr:pnummer": "1017700843", "wheelchair": "limited"}}, {"type": "node", "id": 664252431, "lat": 55.6999384, "lon": 12.5467477, "tags": {"amenity": "bar", "fvst:navnelbnr": "734612", "name": "Det Gamle Sted", "opening_hours:signed": "no", "phone": "+45 35826224", "ref:DK:cvr": "34272778", "smoking": "yes"}}, {"type": "node", "id": 664252432, "lat": 55.6957867, "lon": 12.5439481, "tags": {"amenity": "pub", "fvst:navnelbnr": "552520", "name": "Caf\u00e9 Lille Peter", "opening_hours": "08:00-24:00", "phone": "+45 35851019", "ref:DK:cvr": "17302582", "ref:DK:cvr:pnummer": "1018052616"}}, {"type": "node", "id": 674047419, "lat": 55.6679147, "lon": 12.5563801, "tags": {"alt_name": "Fermentoren Beer Bar", "amenity": "bar", "fvst:navnelbnr": "543448", "internet_access": "wlan", "name": "Fermentoren", "opening_hours": "Mo-We 15:00-24:00; Th 14:00-01:00; Fr-Sa 14:00-02:00; Su 14:00-24:00", "outdoor_seating": "yes", "payment:credit_cards": "yes", "phone": "+45 23908677", "ref:DK:cvr": "33866569", "ref:DK:cvr:pnummer": "1017045586", "website": "http://www.fermentoren.com"}}, {"type": "node", "id": 674777891, "lat": 55.6660465, "lon": 12.5535148, "tags": {"amenity": "bar", "brewery": "Tuborg;Carlsberg", "fvst:navnelbnr": "712621", "indoor_seating": "yes", "internet_access": "wlan", "name": "Cafe 33", "opening_hours": "Fr,Sa 11:00-02:00, Su-Th 11:00-24:00", "outdoor_seating": "yes", "phone": "+45 25 55 55 25", "ref:DK:cvr": "43278770", "ref:DK:cvr:pnummer": "1028273505", "website": "https://bar33.dk/"}}, {"type": "node", "id": 674787360, "lat": 55.667143, "lon": 12.5479089, "tags": {"amenity": "pub", "brewery": "Guinness", "facebook": "https://www.facebook.com/pages/Cafe-Snork-IS/179271535425651", "fvst:navnelbnr": "113622", "name": "Caf\u00e9 Snork", "opening_hours": "14:00-02:00", "outdoor_seating": "yes", "phone": "+45 33315314", "ref:DK:cvr": "21338044", "ref:DK:cvr:pnummer": "1000664948", "toilets": "yes", "website": "http://cafesnork.dk/", "wheelchair": "no"}}, {"type": "node", "id": 674852970, "lat": 55.6672208, "lon": 12.553453, "tags": {"amenity": "bar", "branch": "Vesterbro", "check_date": "2021-08-03", "fvst:navnelbnr": "992119", "indoor_seating": "yes", "name": "Caf\u00e9 42", "outdoor_seating": "yes", "phone": "+45 33316066", "ref:DK:cvr": "41627581", "ref:DK:cvr:pnummer": "1026200292", "website": "https://bar42.dk/"}}, {"type": "node", "id": 676009938, "lat": 55.6683619, "lon": 12.5501454, "tags": {"amenity": "bar", "fvst:navnelbnr": "118681", "name": "Mc Kluud", "opening_hours": "14:00-02:00", "phone": "+45 33316383", "ref:DK:cvr": "28317212", "ref:DK:cvr:pnummer": "1001966636", "smoking": "isolated", "website": "http://www.mckluud.dk/", "wheelchair": "no"}}, {"type": "node", "id": 676010255, "lat": 55.6682661, "lon": 12.5497023, "tags": {"amenity": "bar", "fvst:navnelbnr": "112695", "name": "Vesterbro Vinstue", "phone": "+45 33251080", "source": "own survey", "website": "http://vesterbrovinstue.dk/"}}, {"type": "node", "id": 679304500, "lat": 55.6906927, "lon": 12.554622, "tags": {"amenity": "pub", "fvst:navnelbnr": "113223", "name": "Det Rene Glas", "opening_hours": "Su 11:00-24:00, Mo-Fr 10:00-02:00, Sa 11:00-02:00", "ref:DK:cvr": "35406778", "ref:DK:cvr:pnummer": "1018655175", "wheelchair": "limited"}}, {"type": "node", "id": 679306027, "lat": 55.6908003, "lon": 12.5614037, "tags": {"amenity": "pub", "fvst:navnelbnr": "924855", "name": "Cafeen Funke", "ref:DK:cvr": "40612777", "ref:DK:cvr:pnummer": "1024846705", "wheelchair": "no", "wheelchair:description": "[noParking noEntry 3-4 steps and no outdoor chairs/tables 2012/tbasen.dk]"}}, {"type": "node", "id": 683139428, "lat": 55.6676181, "lon": 12.5484159, "tags": {"amenity": "pub", "fvst:navnelbnr": "114369", "name": "Caf\u00e8 Blomsten", "phone": "+45 33213502", "ref:DK:cvr": "25637607", "ref:DK:cvr:pnummer": "1007931863"}}, {"type": "node", "id": 683141422, "lat": 55.6692729, "lon": 12.5496981, "tags": {"alt_name": "Riesen Bar", "amenity": "bar", "fvst:navnelbnr": "117982", "name": "Riesen", "ref:DK:cvr": "27931294", "wheelchair": "no"}}, {"type": "node", "id": 683192044, "lat": 55.6675503, "lon": 12.5553934, "tags": {"amenity": "pub", "email": "kontakt@cafegrotten.dk", "fvst:navnelbnr": "988049", "indoor_seating": "yes", "name": "Caf\u00e9 Grotten", "opening_hours": "Mo-We 10:00-02:00, Th-Sa 10:00-05:00", "outdoor_seating": "yes", "phone": "+45 33218551", "ref:DK:cvr": "42247642", "ref:DK:cvr:pnummer": "1026958489", "website": "http://www.cafegrotten.dk/"}}, {"type": "node", "id": 687312669, "lat": 55.6772854, "lon": 12.5693007, "tags": {"amenity": "bar", "fvst:navnelbnr": "118492", "name": "Caf\u00e8 Guldhornene", "payment:bitcoin": "yes", "ref:DK:cvr": "31933307", "ref:DK:cvr:pnummer": "1017064254"}}, {"type": "node", "id": 687313455, "lat": 55.6773855, "lon": 12.5694568, "tags": {"amenity": "bar", "fvst:navnelbnr": "115897", "name": "Heidi's Bier Bar", "payment:bitcoin": "yes", "ref:DK:cvr": "27647952", "ref:DK:cvr:pnummer": "1010459180", "website": "https://www.heidisbierbar.dk"}}, {"type": "node", "id": 687314560, "lat": 55.6779133, "lon": 12.5705635, "tags": {"amenity": "bar", "fvst:name": "THE AUSTRALIAN BAR K\u00d8BENHAVN", "fvst:navnelbnr": "112416", "name": "The Australien Bar", "ref:DK:cvr": "17890670", "ref:DK:cvr:pnummer": "1015169296", "website": "https://www.abar.dk/"}}, {"type": "node", "id": 687314916, "lat": 55.6779717, "lon": 12.5707085, "tags": {"amenity": "bar", "fvst:navnelbnr": "661116", "name": "La Boucherie", "ref:DK:cvr": "35043519", "ref:DK:cvr:pnummer": "1018333305"}}, {"type": "node", "id": 687796690, "lat": 55.6822933, "lon": 12.5804369, "tags": {"amenity": "bar", "fvst:navnelbnr": "735352", "name": "Trykbar", "ref:DK:cvr": "39127946", "ref:DK:cvr:pnummer": "1023081624"}}, {"type": "node", "id": 698514092, "lat": 55.6730196, "lon": 12.5597708, "tags": {"amenity": "pub", "fvst:navnelbnr": "118919", "name": "City Pub", "opening_hours": "Su-Tu 16:00-24:00, We,Th 16:00-01:00, Fr,Su 14:00-02:00", "ref:DK:cvr": "31602858", "ref:DK:cvr:pnummer": "1014573034", "wheelchair": "no"}}, {"type": "node", "id": 698796999, "lat": 55.668674, "lon": 12.5565742, "tags": {"alt_name": "Bodega 54", "amenity": "bar", "fvst:navnelbnr": "112222", "name": "St. Pauli Minibar", "phone": "+45 33316527", "ref:DK:cvr": "33109881", "ref:DK:cvr:pnummer": "1016332247"}}, {"type": "node", "id": 698800833, "lat": 55.6696351, "lon": 12.5582526, "tags": {"amenity": "bar", "fvst:navnelbnr": "662590", "indoor_seating": "yes", "name": "Freddys Bar", "outdoor_seating": "yes", "phone": "+45 33227095", "ref:DK:cvr": "28658532", "ref:DK:cvr:pnummer": "1012400221", "wheelchair": "no"}}, {"type": "node", "id": 698800945, "lat": 55.6697425, "lon": 12.5581224, "tags": {"amenity": "bar", "name": "Caf\u00e9 Centralen", "phone": "+45 33 316416", "wheelchair": "no"}}, {"type": "node", "id": 698801245, "lat": 55.6702253, "lon": 12.5580263, "tags": {"amenity": "bar", "fvst:navnelbnr": "112271", "indoor_seating": "yes", "name": "Hos Tove", "outdoor_seating": "yes", "phone": "+45 33243782", "ref:DK:cvr": "18523175", "ref:DK:cvr:pnummer": "1003468458", "wheelchair": "no"}}, {"type": "node", "id": 704974846, "lat": 55.6864665, "lon": 12.5500587, "tags": {"amenity": "bar", "fvst:navnelbnr": "577983", "name": "Tjili Pop 2", "opening_hours": "Su,Mo 09:00-01:00, Tu,We 09:00-02:00, Th 09:00-03:00, Fr,Sa 09:00-04:00", "ref:DK:cvr": "29550964", "ref:DK:cvr:pnummer": "1004630426", "website": "https://www.tjili.dk/", "wheelchair": "no", "wikidata": "Q18552345"}}, {"type": "node", "id": 724002862, "lat": 55.6758158, "lon": 12.6000522, "tags": {"amenity": "bar", "name": "Cafe H\u00f8vlen", "ref:DK:cvr": "36502312", "ref:DK:cvr:pnummer": "1020100725", "smoking": "no", "sport": "billiards", "wheelchair": "no"}}, {"type": "node", "id": 724350527, "lat": 55.6723347, "lon": 12.5498081, "tags": {"amenity": "pub", "fvst:navnelbnr": "796827", "name": "Caf\u00e9 Guldregn", "ref:DK:cvr": "21848476", "ref:DK:cvr:pnummer": "1005251062", "website": "http://www.cafe-guldregn.dk/"}}, {"type": "node", "id": 727411650, "lat": 55.6717251, "lon": 12.5458974, "tags": {"amenity": "pub", "facebook": "https://www.facebook.com/M\u00c4RKBAR-189115531112278/", "fvst:navnelbnr": "116648", "name": "M\u00e4rkbar", "wheelchair": "no"}}, {"type": "node", "id": 727436488, "lat": 55.6721637, "lon": 12.5636709, "tags": {"amenity": "bar", "contact:phone": "+45 33216090", "fvst:navnelbnr": "113401", "name": "Jernbanecafeen", "ref:DK:cvr": "17125273", "ref:DK:cvr:pnummer": "1001227682", "website": "http://www.jernbanecafeen.dk/", "wheelchair": "no", "wikidata": "Q23596044"}}, {"type": "node", "id": 727630351, "lat": 55.6736355, "lon": 12.5906539, "tags": {"amenity": "pub", "fvst:name": "Rest. Fingerb\u00f8llet", "fvst:navnelbnr": "111923", "name": "Fingerb\u00f8llet", "ref:DK:cvr": "86351811", "website": "http://www.fingerboellet.dk", "wheelchair": "yes"}}, {"type": "node", "id": 727708821, "lat": 55.6719928, "lon": 12.5905788, "tags": {"amenity": "pub", "fvst:navnelbnr": "670165", "name": "Kanal Bodega", "ref:DK:cvr": "31665213", "ref:DK:cvr:pnummer": "1014745951", "wheelchair": "no"}}, {"type": "node", "id": 727708837, "lat": 55.6711746, "lon": 12.5924079, "tags": {"amenity": "pub", "fvst:navnelbnr": "114984", "name": "Kafe Falken", "ref:DK:cvr": "29430705", "ref:DK:cvr:pnummer": "1000392364"}}, {"type": "node", "id": 734870384, "lat": 55.6708206, "lon": 12.546286, "tags": {"amenity": "pub", "fvst:navnelbnr": "1228672", "name": "Grusgraven", "ref:DK:cvr": "34409234", "ref:DK:cvr:pnummer": "1026525027", "wheelchair": "no"}}, {"type": "node", "id": 735030034, "lat": 55.6740877, "lon": 12.5513488, "tags": {"amenity": "pub", "fvst:navnelbnr": "114373", "name": "Larsen's Plaz", "ref:DK:cvr": "18958899", "ref:DK:cvr:pnummer": "1009849625", "wheelchair": "no"}}, {"type": "node", "id": 736442048, "lat": 55.6897381, "lon": 12.5602229, "tags": {"amenity": "pub", "fvst:navnelbnr": "111261", "name": "Kattens k\u00e6lder", "ref:DK:cvr": "11929087", "ref:DK:cvr:pnummer": "1002914270", "wheelchair": "no"}}, {"type": "node", "id": 736564703, "lat": 55.6696331, "lon": 12.5544432, "tags": {"alt_name": "Skipper Bodega", "amenity": "pub", "contact:phone": "+45 33 31 84 76", "fvst:navnelbnr": "112401", "indoor_seating": "yes", "name": "Skippers Bodega", "outdoor_seating": "yes", "ref:DK:cvr": "34445060", "ref:DK:cvr:pnummer": "1017586684", "smoking": "yes", "wheelchair": "no"}}, {"type": "node", "id": 737887225, "lat": 55.6688571, "lon": 12.5487739, "tags": {"amenity": "pub", "fvst:navnelbnr": "574833", "name": "Caf\u00e9 Erik", "ref:DK:cvr": "29942552", "ref:DK:cvr:pnummer": "1018451251"}}, {"type": "node", "id": 738164312, "lat": 55.6987309, "lon": 12.5812029, "tags": {"air_conditioning": "no", "amenity": "bar", "fvst:navnelbnr": "803700", "indoor_seating": "yes", "name": "Holstein Bodega", "opening_hours": "08:00-02:00", "outdoor_seating": "yes", "phone": "+45 35265321", "ref:DK:cvr": "30623126", "ref:DK:cvr:pnummer": "1018356356", "smoking": "yes", "website": "http://www.holstein-bodega.dk/", "wheelchair": "no"}}, {"type": "node", "id": 738821344, "lat": 55.6695214, "lon": 12.5400724, "tags": {"amenity": "pub", "fvst:navnelbnr": "923976", "name": "Bob's Hytte", "opening_hours": "Mo-Th 12:00-24:00, Fr,Sa 12:00-03:00, Su 12:00-22:00", "ref:DK:cvr": "32297757", "ref:DK:cvr:pnummer": "1025026868", "wheelchair": "limited"}}, {"type": "node", "id": 738821350, "lat": 55.6709507, "lon": 12.5436884, "tags": {"amenity": "bar", "description": "Vesterbros hyggeligste bar med livesport p\u00e5 storsk\u00e6rme, pool, dart, bordfodbold, plus en l\u00e6kker menu best\u00e5ende af diverse cocktails, special \u00f8l og shots... \u00c5ben alle dage!", "facebook": "https://www.facebook.com/cafeludwigsen/", "fvst:navnelbnr": "699132", "name": "Caf\u00e9 Ludwigsen", "opening_hours": "Mo-We 14:00-02:00, Th-Sa 14:00-05:00, Su 14:00-02:00", "outdoor_seating": "yes", "payment:credit_cards": "yes", "phone": "+45 33237720", "ref:DK:cvr": "33766653", "ref:DK:cvr:pnummer": "1016948833", "sport": "table_soccer", "toilets": "yes", "toilets:wheelchair": "no", "website": "http://www.cafeludwigsen.dk/", "wheelchair": "no"}}, {"type": "node", "id": 745576449, "lat": 55.6654768, "lon": 12.5388859, "tags": {"air_conditioning": "no", "amenity": "bar", "fvst:navnelbnr": "794011", "indoor_seating": "yes", "name": "Cafe Bryggeriet", "opening_hours": "Mo-Th 12:00-24:00, Fr 12:00-05:00, Sa 12:00-03:00", "outdoor_seating": "yes", "ref:DK:cvr": "40108173", "ref:DK:cvr:pnummer": "1024242036", "wheelchair": "no"}}, {"type": "node", "id": 746251105, "lat": 55.6675771, "lon": 12.5780731, "tags": {"amenity": "bar", "fvst:navnelbnr": "112526", "name": "Caf\u00e9 Haraldsborg", "opening_hours": "Mo-Su 10:00-02:00", "phone": "+45 32 54 69 02", "ref:DK:cvr": "18021102", "ref:DK:cvr:pnummer": "1002973532"}}, {"type": "node", "id": 746251544, "lat": 55.6678361, "lon": 12.5785286, "tags": {"amenity": "bar", "fvst:navnelbnr": "113152", "name": "Isbj\u00f8rnen", "phone": "+45 32 96 96 40", "ref:DK:cvr": "20634596", "ref:DK:cvr:pnummer": "1000415388"}}, {"type": "node", "id": 746302702, "lat": 55.6690764, "lon": 12.5500661, "tags": {"alt_name": "Bodega Det lille \u00d8resund", "amenity": "bar", "fvst:navnelbnr": "712408", "name": "Det Lille \u00d8resund", "ref:DK:cvr": "33665253", "smoking": "yes", "wheelchair": "no"}}, {"type": "node", "id": 818683303, "lat": 55.6812668, "lon": 12.5645148, "tags": {"amenity": "pub", "fvst:navnelbnr": "658921", "name": "\u00d8rsted \u00d8lbar & Cafe", "ref:DK:cvr": "36717009", "ref:DK:cvr:pnummer": "1020328815", "website": "https://oerstedoelbar.dk/", "wheelchair": "no"}}, {"type": "node", "id": 818898743, "lat": 55.6719575, "lon": 12.5575483, "tags": {"amenity": "bar", "contact:instagram": "https://www.instagram.com/mikkellerbarvik", "fvst:navnelbnr": "576202", "min_age": "18", "name": "Mikkeller Bar Viktoriagade", "opening_hours": "Mo-Th 14:00-23:00; Fr 14:00-00:00; Sa 12:00-00:00; Su 14:00-22:00", "phone": "+45 33310415", "ref:DK:cvr": "32297757", "ref:DK:cvr:pnummer": "1019053373", "website": "https://mikkeller.com/locations/mikkeller-viktoriagade", "wheelchair": "no"}}, {"type": "node", "id": 823266193, "lat": 55.6788127, "lon": 12.5313704, "tags": {"alt_name": "H.H. Ranch", "amenity": "pub", "fvst:navnelbnr": "112052", "name": "Western Saloon", "ref:DK:cvr": "10193001", "wheelchair": "no"}}, {"type": "node", "id": 861271148, "lat": 55.6633027, "lon": 12.5420331, "tags": {"air_conditioning": "no", "amenity": "pub", "facebook": "https://www.facebook.com/pages/Cafe-Hytten/113255848745624", "fvst:navnelbnr": "796833", "indoor_seating": "yes", "name": "Cafe Hytten", "opening_hours": "Mo-Sa 06:00-01:00, Su 10:00-01:00", "outdoor_seating": "no", "phone": "+45 33 79 70 70", "ref:DK:cvr": "26348196", "ref:DK:cvr:pnummer": "1019889730", "smoking": "yes", "wheelchair": "no"}}, {"type": "node", "id": 870440497, "lat": 55.6736923, "lon": 12.5560021, "tags": {"amenity": "bar", "fvst:name": "Kennedys irish Bar A Kennedy & T Tynan", "fvst:navnelbnr": "111889", "name": "Kennedys Irish Bar", "opening_hours": "Mo-Su 12:00-02:00", "phone": "+45 33315249", "ref:DK:cvr": "25715640", "ref:DK:cvr:pnummer": "1008021429", "wheelchair": "no"}}, {"type": "node", "id": 888340138, "lat": 55.673194, "lon": 12.5612145, "tags": {"alt_name": "Scandic Cube Cafe", "amenity": "bar", "fvst:navnelbnr": "116204", "name": "Cube", "operator": "Scandic Webers", "phone": "+45 33311432", "ref:DK:cvr": "12596774", "wheelchair": "no"}}, {"type": "node", "id": 893929266, "lat": 55.6673995, "lon": 12.5477341, "tags": {"access:covid19": "no", "amenity": "bar", "check_date": "2020-12-16", "facebook": "https://m.facebook.com/stempelcph/", "name": "Stempel Bar & Kitchen", "outdoor_seating": "yes", "payment:credit_cards": "yes", "phone": "+45 3321 2767", "toilets": "yes", "website": "https://www.stempelcph.dk/"}}, {"type": "node", "id": 893959430, "lat": 55.6754287, "lon": 12.5644398, "tags": {"amenity": "bar", "fvst:navnelbnr": "510638", "name": "Axelborg Bodega", "opening_hours": "11:00-16:00,16:00+", "phone": "+45 33110638", "ref:DK:cvr": "34216444", "ref:DK:cvr:pnummer": "1017432954", "website": "http://www.axelborgbodega.dk/", "wheelchair": "no"}}, {"type": "node", "id": 893968817, "lat": 55.6764611, "lon": 12.5713541, "tags": {"amenity": "bar", "fvst:navnelbnr": "114140", "name": "Villa Vino", "ref:DK:cvr": "27509894", "ref:DK:cvr:pnummer": "1003186208"}}, {"type": "node", "id": 893993391, "lat": 55.6779554, "lon": 12.5807439, "tags": {"alt_name": "Kirstens Cocktail - og Vinbar", "amenity": "bar", "fvst:navnelbnr": "113255", "name": "K Cocktailbar", "opening_hours": "16:00-02:00; Su off", "ref:DK:cvr": "26677637", "ref:DK:cvr:pnummer": "1009190097", "wheelchair": "no"}}, {"type": "node", "id": 894227347, "lat": 55.6789623, "lon": 12.5910624, "tags": {"amenity": "bar", "fvst:navnelbnr": "665473", "name": "Caf\u00e9 M\u00f8nten", "opening_hours": "Mo-Sa 10:00-24:00", "phone": "+45 33152000", "ref:DK:cvr": "37975524", "ref:DK:cvr:pnummer": "1021827041"}}, {"type": "node", "id": 895776321, "lat": 55.6754762, "lon": 12.5662861, "tags": {"amenity": "pub", "branch": "Vesterbrogade", "brand": "The Old Irish Pub", "fvst:navnelbnr": "749035", "name": "The Old Irish Pub Vesterbrogade", "phone": "+45 51 26 84 97", "ref:DK:cvr": "35028692", "ref:DK:cvr:pnummer": "1023454013", "website": "https://oldirishpub.dk/", "wheelchair": "no"}}, {"type": "node", "id": 895777978, "lat": 55.6755287, "lon": 12.5664591, "tags": {"amenity": "pub", "fvst:navnelbnr": "111291", "name": "The Old English Pub", "ref:DK:cvr": "15699345", "ref:DK:cvr:pnummer": "1002974400", "source": "Kaart Ground Survey 2017", "wheelchair": "limited"}}, {"type": "node", "id": 895874662, "lat": 55.672321, "lon": 12.4883495, "tags": {"alt_name": "\u00c5len", "amenity": "bar", "fvst:navnelbnr": "113112", "name": "Cafe Aalholm Bodega", "opening_hours": "09:00-22:00", "ref:DK:cvr": "27282571", "ref:DK:cvr:pnummer": "1000129428", "smoking": "yes"}}, {"type": "node", "id": 898920410, "lat": 55.6815566, "lon": 12.5842922, "tags": {"access:covid19": "no", "amenity": "bar", "fvst:navnelbnr": "1115608", "name": "Natcafeen", "ref:DK:cvr": "39911116", "ref:DK:cvr:pnummer": "1024008947", "website": "https://natcafeen.dk/"}}, {"type": "node", "id": 898930207, "lat": 55.6821592, "lon": 12.5822351, "tags": {"amenity": "bar", "fvst:navnelbnr": "114335", "name": "Andy's Bar", "opening_hours": "16:00+;Fr 14:00+", "phone": "+45 33120646", "ref:DK:cvr": "34737398", "ref:DK:cvr:pnummer": "1018068555", "smoking": "yes", "website": "https://andysbar.dk/", "wheelchair": "no"}}, {"type": "node", "id": 898933924, "lat": 55.6823061, "lon": 12.5816691, "tags": {"amenity": "bar", "fvst:navnelbnr": "114647", "name": "Cucaracha Bar", "ref:DK:cvr": "31625246", "ref:DK:cvr:pnummer": "1014786631", "wheelchair": "no"}}, {"type": "node", "id": 898939487, "lat": 55.6818705, "lon": 12.5825994, "tags": {"alt_name": "Basement Bar", "amenity": "bar", "fvst:navnelbnr": "119134", "name": "Basement", "ref:DK:cvr": "29838925", "wheelchair": "no"}}, {"type": "node", "id": 898941047, "lat": 55.6812694, "lon": 12.5810346, "tags": {"alt_name": "L.A. Tequila Bar", "amenity": "bar", "fvst:navnelbnr": "117312", "name": "LaBar", "ref:DK:cvr": "27048021", "website": "https://www.latequilabar.dk/byer/kobenhavn/", "wheelchair": "no"}}, {"type": "node", "id": 898950333, "lat": 55.6812502, "lon": 12.5794331, "tags": {"amenity": "bar", "fvst:navnelbnr": "113304", "name": "Cafe Rex", "opening_hours": "We 21:00-24:00; Th 00:00-03:00,21:00-24:00; Fr 00:00-03:00,18:00-24:00; Sa 00:00-05:00,22:00-24:00; Su 00:00-05:00", "phone": "+45 33 93 18 18", "ref:DK:cvr": "26780454", "ref:DK:cvr:pnummer": "1009313326", "shop": "alcohol", "website": "http://www.caferex.dk/"}}, {"type": "node", "id": 898951399, "lat": 55.6810096, "lon": 12.5786867, "tags": {"amenity": "bar", "fvst:navnelbnr": "113043", "name": "Bo-Bi Bar", "opening_hours": "Mo-Su 12:00-24:00", "ref:DK:cvr": "27989136", "ref:DK:cvr:pnummer": "1010726073"}}, {"type": "node", "id": 898953156, "lat": 55.6805487, "lon": 12.5771236, "tags": {"alt_name": "Hornsleth Bar", "amenity": "bar", "fvst:navnelbnr": "666955", "min_age": "23", "name": "Hornsleth", "opening_hours": "Fr-Sa 22:00-05:00", "phone": "+45 31737308", "ref:DK:cvr": "32141099", "ref:DK:cvr:pnummer": "1017108979", "website": "http://hornslethbar.dk/kobenhavn/"}}, {"type": "node", "id": 898964645, "lat": 55.6800207, "lon": 12.5746175, "tags": {"alt_name": "Surf Bar", "amenity": "bar", "fvst:navnelbnr": "117912", "name": "Den glade Gris", "ref:DK:cvr": "28515626", "ref:DK:cvr:pnummer": "1011226384"}}, {"type": "node", "id": 899019395, "lat": 55.671677, "lon": 12.5547467, "tags": {"amenity": "bar", "cuisine": "wine", "fvst:navnelbnr": "116093", "name": "Vinbaren Vesterbro Torv", "phone": "+45 21408527", "ref:DK:cvr": "18050285", "ref:DK:cvr:pnummer": "1015008055", "website": "http://vinbarenvesterbrotorv.dk/", "wheelchair": "no"}}, {"type": "node", "id": 899199394, "lat": 55.6644904, "lon": 12.5838891, "tags": {"amenity": "pub", "fvst:navnelbnr": "955186", "name": "Artillericafeen", "opening_hours": "Mo-Sa 10:00-02:00; Su off", "ref:DK:cvr": "18525739", "ref:DK:cvr:pnummer": "1025718883"}}, {"type": "node", "id": 899246045, "lat": 55.6682928, "lon": 12.5959519, "tags": {"amenity": "bar", "check_date": "2020-12-10", "name": "Louies Vinstue", "opening_hours": "Mo-Su 09:00-24:00", "smoking": "yes"}}, {"type": "node", "id": 923662035, "lat": 55.698944, "lon": 12.5408153, "tags": {"amenity": "pub", "fvst:navnelbnr": "556716", "name": "Esrom Kroen", "ref:DK:cvr": "36002689", "ref:DK:cvr:pnummer": "1019704412"}}, {"type": "node", "id": 976747659, "lat": 55.7104835, "lon": 12.5610308, "tags": {"amenity": "pub", "fvst:navnelbnr": "116590", "name": "B\u00f8rges Bodega", "opening_hours": "Mo-Su 15:00-20:00", "ref:DK:cvr": "32146287", "ref:DK:cvr:pnummer": "1015250077", "source": "Kaart Ground Survey 2017", "wheelchair": "no"}}, {"type": "node", "id": 978057337, "lat": 55.6837431, "lon": 12.56518, "tags": {"amenity": "bar", "fvst:navnelbnr": "114549", "name": "Bibendum", "opening_hours": "Mo-Th 17:00-23:00; Fr-Sa 16:00-23:00; Su off", "opening_hours:kitchen": "16:00-22:00; Su", "phone": "+45 33330774", "ref:DK:cvr": "26925142", "ref:DK:cvr:pnummer": "1009597197", "website": "https://bibendum.dk/", "wheelchair": "no"}}, {"type": "node", "id": 1029964787, "lat": 55.7048538, "lon": 12.5620603}, {"type": "node", "id": 1029964797, "lat": 55.7046744, "lon": 12.5620736}, {"type": "node", "id": 1029964825, "lat": 55.7048358, "lon": 12.5620878}, {"type": "node", "id": 1029964828, "lat": 55.7046759, "lon": 12.5620054}, {"type": "node", "id": 1029964833, "lat": 55.704754, "lon": 12.5619073}, {"type": "node", "id": 1029964860, "lat": 55.7047385, "lon": 12.5619237}, {"type": "node", "id": 1029964887, "lat": 55.7047726, "lon": 12.5618964}, {"type": "node", "id": 1029964889, "lat": 55.7048577, "lon": 12.5619132}, {"type": "node", "id": 1029964895, "lat": 55.7047159, "lon": 12.562008}, {"type": "node", "id": 1029964898, "lat": 55.7047196, "lon": 12.5619793}, {"type": "node", "id": 1029964927, "lat": 55.7047961, "lon": 12.5618937}, {"type": "node", "id": 1029964930, "lat": 55.7047268, "lon": 12.5619502}, {"type": "node", "id": 1029964937, "lat": 55.7048477, "lon": 12.5620802}, {"type": "node", "id": 1109570885, "lat": 55.6950589, "lon": 12.5479618, "tags": {"amenity": "pub", "fvst:navnelbnr": "111781", "name": "N\u00f8rre Bodega", "opening_hours": "Mo-Su 10:00-05:00", "ref:DK:cvr": "13986940", "ref:DK:cvr:pnummer": "1000661172", "wheelchair": "limited"}}, {"type": "node", "id": 1118919064, "lat": 55.6942552, "lon": 12.5482944, "tags": {"amenity": "pub", "fvst:navnelbnr": "117859", "indoor_seating": "yes", "name": "Cafe Runddelen", "opening_hours": "Mo-Su 12:00-05:00", "outdoor_seating": "yes", "ref:DK:cvr": "28533640", "ref:DK:cvr:pnummer": "1015905146", "wheelchair": "limited"}}, {"type": "node", "id": 1121970704, "lat": 55.6979994, "lon": 12.5358935, "tags": {"amenity": "pub", "fvst:navnelbnr": "113491", "name": "Caf\u00e9 Under Hylden", "phone": "+45 38117477", "ref:DK:cvr": "26068037", "ref:DK:cvr:pnummer": "1012085563", "website": "http://underhylden.dk/"}}, {"type": "node", "id": 1136433325, "lat": 55.689562, "lon": 12.556587, "tags": {"amenity": "pub", "fvst:navnelbnr": "1218492", "name": "Temple Bar", "opening_hours": "Mo-Su 15:00-24:00", "ref:DK:cvr": "29153248", "ref:DK:cvr:pnummer": "1014870020", "sport": "table_soccer", "wheelchair": "no"}}, {"type": "node", "id": 1141451331, "lat": 55.7059235, "lon": 12.5789264, "tags": {"air_conditioning": "no", "alt_name": "Bubbles Bar", "amenity": "bar", "drink:cocktail": "served", "fvst:navnelbnr": "718046", "indoor_seating": "yes", "name": "Bubbles", "note": "Champagne and Cocktails", "old_name": "Kitjn", "opening_hours": "18:00-03:00, We-Th 16:00-24:00, Su-Tu off", "opening_hours:signed": "no", "outdoor_seating": "yes", "payment:credit_cards": "yes", "payment:debit_cards": "yes", "phone": "+45 31250099", "ref:DK:cvr": "38623524", "smoking": "no", "website": "http://www.bubblesbar.dk/", "wheelchair": "no"}}, {"type": "node", "id": 1164115044, "lat": 55.6876316, "lon": 12.527984, "tags": {"amenity": "pub", "fvst:navnelbnr": "669956", "name": "Vint\u00f8nden", "ref:DK:cvr": "36477334", "ref:DK:cvr:pnummer": "1020302662", "wheelchair": "no"}}, {"type": "node", "id": 1200013170, "lat": 55.6936967, "lon": 12.5321763, "tags": {"amenity": "pub", "fvst:navnelbnr": "115688", "name": "Det Gamle Posthus", "ref:DK:cvr": "28257597", "ref:DK:cvr:pnummer": "1011107180"}}, {"type": "node", "id": 1200105789, "lat": 55.6880152, "lon": 12.5606456, "tags": {"amenity": "bar", "email": "cocktail@kassen.dk", "fvst:navnelbnr": "115544", "name": "Kassen", "opening_hours": "We 20:00-02:00; Th 20:00-03:00; Fr 16:00-04:00; Sa 20:00-04:00", "phone": "+4542572200", "ref:DK:cvr": "30987578", "ref:DK:cvr:pnummer": "1013740387", "website": "http://kassen.dk", "wheelchair": "limited"}}, {"type": "node", "id": 1200114179, "lat": 55.6960958, "lon": 12.5475371, "tags": {"amenity": "pub", "fvst:navnelbnr": "905221", "name": "Mucki Bar", "ref:DK:cvr": "26050499", "ref:DK:cvr:pnummer": "1024019957", "wheelchair": "limited"}}, {"type": "node", "id": 1278093389, "lat": 55.7141553, "lon": 12.5717271, "tags": {"air_conditioning": "no", "alt_name": "PERIKLES FANBAR", "amenity": "bar", "check_date:opening_hours": "2022-08-11", "dog": "yes", "fvst:name": "Perickles", "fvst:navnelbnr": "717167", "indoor_seating": "yes", "name": "Perikles Bodega", "opening_hours:signed": "no", "outdoor_seating": "yes", "payment:credit_cards": "yes", "payment:debit_cards": "yes", "ref:DK:cvr": "32567576", "smoking": "yes", "wheelchair": "no"}}, {"type": "node", "id": 1305262264, "lat": 55.6876448, "lon": 12.5594632, "tags": {"amenity": "bar", "check_date": "2020-12-16", "diet:vegan": "yes", "diet:vegetarian": "yes", "name": "Harbo Bar", "opening_hours": "Mo-Th 08:30-00:00, Fr 08:30-02:00, Sa 09:30-02:00, Su 09:30-23:00"}}, {"type": "node", "id": 1311537207, "lat": 55.6954525, "lon": 12.6095487, "tags": {"amenity": "bar", "fvst:navnelbnr": "644522", "name": "Halvandet", "ref:DK:cvr": "37189197", "ref:DK:cvr:pnummer": "1020851763"}}, {"type": "node", "id": 1324781959, "lat": 55.6787751, "lon": 12.5803397, "tags": {"amenity": "bar", "fvst:navnelbnr": "116955", "internet_access": "wlan", "name": "Toga Vinstue", "opening_hours": "Mo-We 14:00-03:00, Th 14:00-04:00, Fr 12:00-05:00, Sa 11:00-05:00, Su 16:00-22:00, Jan 1 off", "payment:bitcoin": "yes", "phone": "+45 33122126", "ref:DK:cvr": "33034342", "ref:DK:cvr:pnummer": "1016117656", "smoking": "yes", "website": "http://www.toga.dk/", "wikidata": "Q16324763", "wikipedia": "da:Toga Vinstue"}}, {"type": "node", "id": 1358980017, "lat": 55.6643102, "lon": 12.6032096, "tags": {"alt_name": "Jaguar Bodega", "amenity": "bar", "fvst:navnelbnr": "115280", "name": "Jaguaren", "ref:DK:cvr": "25524705", "wheelchair": "yes"}}, {"type": "node", "id": 1358983535, "lat": 55.664579, "lon": 12.604527, "tags": {"amenity": "pub", "fvst:navnelbnr": "525601", "name": "Bootleggers Craft Beer Bar", "opening_hours": "Mo-Su 16:00-02:00", "phone": "+45 61776111", "smoking": "outside", "website": "https://www.facebook.com/bootamager/"}}, {"type": "node", "id": 1359003216, "lat": 55.666984, "lon": 12.616356, "tags": {"amenity": "bar", "fvst:navnelbnr": "559955", "name": "John's Kro", "ref:DK:cvr": "35111441", "ref:DK:cvr:pnummer": "1018533487", "wheelchair": "no"}}, {"type": "node", "id": 1369021923, "lat": 55.7007099, "lon": 12.5417497, "tags": {"amenity": "pub", "fvst:name": "WEIERGANG LARSEN", "fvst:navnelbnr": "112116", "name": "Cafe Heimdal", "ref:DK:cvr": "76147418", "smoking": "yes", "wheelchair": "no"}}, {"type": "node", "id": 1439744394, "lat": 55.6738595, "lon": 12.5646995, "tags": {"amenity": "bar", "fvst:navnelbnr": "126382", "name": "Library Bar", "ref:DK:cvr": "32302610", "ref:DK:cvr:pnummer": "1016234822", "wheelchair": "yes"}}, {"type": "node", "id": 1443471679, "lat": 55.686467, "lon": 12.5876904, "tags": {"amenity": "bar", "fvst:navnelbnr": "721942", "name": "Borgerkroen", "ref:DK:cvr": "11929087", "ref:DK:cvr:pnummer": "1021908807", "smoking": "yes", "wheelchair": "no"}}, {"type": "node", "id": 1462189989, "lat": 55.6845001, "lon": 12.5674404, "tags": {"amenity": "bar", "check_date": "2022-06-08", "name": "Funchs Vinstue", "phone": "+45 33115445", "smoking": "yes", "website": "https://www.funchs55.com/"}}, {"type": "node", "id": 1462221515, "lat": 55.6839289, "lon": 12.5684807, "tags": {"amenity": "bar", "fvst:name": "Venato Funchs", "fvst:navnelbnr": "755637", "name": "Jagtstuen", "ref:DK:cvr": "38737635", "smoking": "yes", "wheelchair": "no"}}, {"type": "node", "id": 1463848266, "lat": 55.684931, "lon": 12.558795, "tags": {"amenity": "pub", "fvst:navnelbnr": "110838", "name": "Diligencen", "opening_hours": "Mo-Fr 08:00-24:00; Sa-Su 10:00-24:00", "ref:DK:cvr": "89744415", "ref:DK:cvr:pnummer": "1002825730", "wheelchair": "limited"}}, {"type": "node", "id": 1473047867, "lat": 55.6991351, "lon": 12.5539198, "tags": {"alt_name": "Tagensborg Bodega", "amenity": "bar", "fvst:navnelbnr": "717224", "name": "Tagensborg", "opening_hours": "Mo-We 12:00-24:00, Th 12:00-03:00, Fr,Sa 12:00-05:00, Su 12:00-22:00", "ref:DK:cvr": "36975210", "wheelchair": "no"}}, {"type": "node", "id": 1473374585, "lat": 55.6462515, "lon": 12.5244533, "tags": {"amenity": "bar", "fvst:navnelbnr": "712063", "name": "Cafe Fremforalt", "opening_hours": "Su-Th 10:00-22:00, Fr-Sa 10:00-02:00", "outdoor_seating": "yes", "phone": "+45 44 66 00 01", "ref:DK:cvr": "38323865", "ref:DK:cvr:pnummer": "1022083828", "smoking": "yes", "source": "local knowledge", "website": "http://cafefremforalt.dk/"}}, {"type": "node", "id": 1473380726, "lat": 55.6522734, "lon": 12.5352733, "tags": {"alt_name": "Sydvest Bodega", "amenity": "bar", "fvst:navnelbnr": "119474", "name": "Syd Vest", "ref:DK:cvr": "29274223", "ref:DK:cvr:pnummer": "1013857551"}}, {"type": "node", "id": 1478802918, "lat": 55.6819408, "lon": 12.5634756, "tags": {"amenity": "pub", "fvst:navnelbnr": "117246", "name": "Caf\u00e9 Stjernen", "ref:DK:cvr": "29208263", "ref:DK:cvr:pnummer": "1012115810"}}, {"type": "node", "id": 1497198641, "lat": 55.6812131, "lon": 12.5837207, "tags": {"amenity": "bar", "fvst:navnelbnr": "526791", "name": "Pal\u00e6 Bar", "ref:DK:cvr": "29732469", "ref:DK:cvr:pnummer": "1012555527"}}, {"type": "node", "id": 1497201304, "lat": 55.6817658, "lon": 12.5837032, "tags": {"amenity": "bar", "fvst:navnelbnr": "119026", "name": "Da Vinci", "ref:DK:cvr": "29326703", "ref:DK:cvr:pnummer": "1012032966", "wheelchair": "no"}}, {"type": "node", "id": 1584391960, "lat": 55.6972572, "lon": 12.544631, "tags": {"alt_name": "Dispensary Whisky & Beer", "amenity": "bar", "check_date": "2020-12-15", "fvst:navnelbnr": "708014", "name": "Dispensary", "ref:DK:cvr": "38223208", "source": "https://www.openstreetmap.org/note/1474593", "wheelchair": "limited"}}, {"type": "node", "id": 1590786486, "lat": 55.6780616, "lon": 12.5824889, "tags": {"amenity": "pub", "fvst:navnelbnr": "111238", "name": "Cafe Nick", "ref:DK:cvr": "18018543", "ref:DK:cvr:pnummer": "1001412709", "wikidata": "Q21855744"}}, {"type": "node", "id": 1591124412, "lat": 55.682421, "lon": 12.571505, "tags": {"amenity": "bar", "fvst:navnelbnr": "551146", "name": "N\u00f8rreport Bodega", "ref:DK:cvr": "35654305", "ref:DK:cvr:pnummer": "1019100231"}}, {"type": "node", "id": 1595066426, "lat": 55.6644556, "lon": 12.598079, "tags": {"amenity": "pub", "fvst:navnelbnr": "1120264", "name": "Lassie Bar", "ref:DK:cvr": "40975829", "ref:DK:cvr:pnummer": "1025287114"}}, {"type": "node", "id": 1596733408, "lat": 55.6781756, "lon": 12.5686176, "tags": {"amenity": "bar", "fvst:navnelbnr": "671045", "name": "Masken Bar", "ref:DK:cvr": "28861524", "ref:DK:cvr:pnummer": "1011517451"}}, {"type": "node", "id": 1596735570, "lat": 55.6783036, "lon": 12.568967, "tags": {"amenity": "bar", "fvst:navnelbnr": "501284", "name": "The Log Lady", "ref:DK:cvr": "33346549", "ref:DK:cvr:pnummer": "1016639458", "wheelchair": "no"}}, {"type": "node", "id": 1596737699, "lat": 55.6786141, "lon": 12.5693401, "tags": {"amenity": "bar", "email": "info@atlasbar.dk", "fvst:navnelbnr": "111874", "internet_access": "wlan", "level": "-1", "min_age": "0", "name": "Atlas Bar", "opening_hours": "12:00-22:00", "phone": "+4533150352", "ref:DK:cvr": "12874774", "ref:DK:cvr:pnummer": "1000460560", "website": "https://atlasbar.dk/", "wheelchair": "no"}}, {"type": "node", "id": 1596792063, "lat": 55.6779253, "lon": 12.5711363, "tags": {"alt_name": "Retro Disco", "amenity": "bar", "fvst:navnelbnr": "714363", "name": "Retro Bar", "ref:DK:cvr": "36695331", "ref:DK:cvr:pnummer": "1020267077"}}, {"type": "node", "id": 1605261363, "lat": 55.7038318, "lon": 12.5569429}, {"type": "node", "id": 1605261367, "lat": 55.7038933, "lon": 12.5571326}, {"type": "node", "id": 1605261387, "lat": 55.7038957, "lon": 12.5568229}, {"type": "node", "id": 1605261391, "lat": 55.7039805, "lon": 12.5571064}, {"type": "node", "id": 1608797133, "lat": 55.6797778, "lon": 12.584715, "tags": {"amenity": "pub", "contact:email": "hviids@mail.tele.dk", "fvst:navnelbnr": "1272679", "indoor_seating": "yes", "name": "Hviids Vinstue", "opening_hours": "PH,Mo-Th 10:00-01:00, PH,Su 10:00-20:00, PH,Fr,Sa 10:00-02:00", "outdoor_seating": "yes", "phone": "+45 33151064", "ref:DK:cvr": "42086916", "ref:DK:cvr:pnummer": "1026778006", "smoking": "isolated", "website": "http://www.hviidsvinstue.dk/", "wheelchair": "limited", "wikidata": "Q23590697"}}, {"type": "node", "id": 1612954850, "lat": 55.6756583, "lon": 12.5735337, "tags": {"amenity": "bar", "description": "live music every night", "fvst:name": "MOJO APS", "fvst:navnelbnr": "112592", "name": "Mojo Blues Bar", "ref:DK:cvr": "18752204", "smoking": "yes", "website": "https://www.mojo.dk/", "wheelchair": "yes"}}, {"type": "node", "id": 1613051108, "lat": 55.6767102, "lon": 12.5721156, "tags": {"amenity": "pub", "fvst:navnelbnr": "1240578", "name": "Centralhj\u00f8rnet", "ref:DK:cvr": "42841781", "ref:DK:cvr:pnummer": "1027736021", "source": "survey", "website": "https://centralhjornet.dk/", "wheelchair": "no", "wikidata": "Q106668905"}}, {"type": "node", "id": 1616786814, "lat": 55.6813135, "lon": 12.5642273, "tags": {"amenity": "pub", "fvst:navnelbnr": "113995", "internet_access": "wlan", "internet_access:fee": "no", "name": "Cafe Globen", "ref:DK:cvr": "28299346", "ref:DK:cvr:pnummer": "1011002907", "website": "http://www.cafegloben.dk", "wheelchair": "limited"}}, {"type": "node", "id": 1619265824, "lat": 55.6668132, "lon": 12.5048845, "tags": {"amenity": "pub", "fvst:name": "Restaurant/Bar Nanok", "fvst:navnelbnr": "565688", "name": "Nanok Bar", "phone": "+45 36305846", "ref:DK:cvr": "36545399", "source": "Kaart Ground Survey 2017", "website": "https://www.nanokbodega.com/"}}, {"type": "node", "id": 1628406934, "lat": 55.681166, "lon": 12.580734, "tags": {"amenity": "bar", "fvst:navnelbnr": "112508", "name": "Wessels Kro", "ref:DK:cvr": "28858396", "ref:DK:cvr:pnummer": "1011511305", "smoking": "separated"}}, {"type": "node", "id": 1628413117, "lat": 55.6811342, "lon": 12.5816783, "tags": {"amenity": "bar", "cuisine": "wine", "fvst:navnelbnr": "505985", "name": "Kj\u00e6r & Sommerfeldt", "opening_hours": "Mo-Th,Sa 10:00-18:00; Fr 10:00-20:00", "ref:DK:cvr": "30531620", "ref:DK:cvr:pnummer": "1014812462", "shop": "alcohol", "website": "https://www.kjaersommerfeldt.dk/butik-k%C3%B8benhavn", "wheelchair": "yes"}}, {"type": "node", "id": 1628427956, "lat": 55.6819319, "lon": 12.5801525, "tags": {"amenity": "bar", "fvst:navnelbnr": "119817", "name": "R Vinbar", "ref:DK:cvr": "33956541", "ref:DK:cvr:pnummer": "1017164321"}}, {"type": "node", "id": 1628470253, "lat": 55.6816239, "lon": 12.5793588, "tags": {"amenity": "pub", "fvst:navnelbnr": "112691", "name": "Byens Kro", "ref:DK:cvr": "28962215", "ref:DK:cvr:pnummer": "1010357779"}}, {"type": "node", "id": 1629984199, "lat": 55.6806961, "lon": 12.5884807, "tags": {"amenity": "bar", "fvst:navnelbnr": "533543", "name": "Hong Kong Night Club", "ref:DK:cvr": "14156895", "wheelchair": "no"}}, {"type": "node", "id": 1629995901, "lat": 55.6803457, "lon": 12.5897588, "tags": {"amenity": "pub", "fvst:navnelbnr": "114345", "name": "Hyttefadet", "outdoor_seating": "yes", "ref:DK:cvr": "18408171", "ref:DK:cvr:pnummer": "1003245273", "wheelchair": "limited"}}, {"type": "node", "id": 1629996639, "lat": 55.6803121, "lon": 12.5898879, "tags": {"amenity": "pub", "fvst:navnelbnr": "786680", "name": "Skipperkroen", "ref:DK:cvr": "17720082", "ref:DK:cvr:pnummer": "1024218275", "wheelchair": "limited"}}, {"type": "node", "id": 1629999347, "lat": 55.6802753, "lon": 12.5900424, "tags": {"amenity": "pub", "fvst:navnelbnr": "786684", "name": "Fisken", "ref:DK:cvr": "17720082", "ref:DK:cvr:pnummer": "1024218119", "wheelchair": "limited"}}, {"type": "node", "id": 1630068073, "lat": 55.6770568, "lon": 12.5897281, "tags": {"amenity": "pub", "fvst:navnelbnr": "934514", "name": "Cafe Malm\u00f8", "outdoor_seating": "yes", "payment:credit_cards": "yes", "phone": "+45 3312 7260", "ref:DK:cvr": "36094257", "ref:DK:cvr:pnummer": "1019916754", "toilets": "yes", "website": "https://www.xn--cafemalm-d5a.dk/"}}, {"type": "node", "id": 1655800627, "lat": 55.6665369, "lon": 12.5176996, "tags": {"alt_name": "Guinness Pub", "amenity": "pub", "fvst:navnelbnr": "113091", "name": "Giniz", "opening_hours": "Mo-Th 16:00-02:00, Fr,Sa 16:00-04:00, Su 16:00-24:00", "ref:DK:cvr": "18665689", "ref:DK:cvr:pnummer": "1003947162", "website": "http://giniz.dk/", "wheelchair": "no"}}, {"type": "node", "id": 1714804136, "lat": 55.6621477, "lon": 12.5221203, "tags": {"amenity": "bar", "fvst:name": "Cafe Den Gylden Blonde", "fvst:navnelbnr": "763844", "name": "Den Gyldenblonde", "phone": "+45 36303887", "ref:DK:cvr": "38878719"}}, {"type": "node", "id": 1775543925, "lat": 55.6901037, "lon": 12.5624942, "tags": {"amenity": "bar", "fvst:name": "THE BARKING DOG TRADING COMPANY", "fvst:navnelbnr": "509410", "name": "The Barking Dog", "opening_hours": "Su 16:00-24:00; Tu-Th 16:00-24:00, Fr-Sa 16:00-02:00", "phone": "+45 35361600", "ref:DK:cvr": "33779518", "ref:DK:cvr:pnummer": "1016978678", "source": "survey", "website": "http://www.thebarkingdog.dk/"}}, {"type": "node", "id": 1778854834, "lat": 55.6891027, "lon": 12.5624146, "tags": {"amenity": "bar", "fvst:navnelbnr": "713399", "name": "Kind of Blue", "opening_hours": "Mo-We 16:00-24:00, Th-Sa 16:00-02:00, Su off", "ref:DK:cvr": "37812609", "ref:DK:cvr:pnummer": "1021526084", "source": "survey", "website": "https://www.kindofblue.dk/", "wheelchair": "no"}}, {"type": "node", "id": 1822849398, "lat": 55.6583402, "lon": 12.6028151, "tags": {"amenity": "pub", "fvst:navnelbnr": "114811", "name": "Caf\u00e9 Lystig", "opening_hours": "Fr 16:00-04:00, Sa 18:00-04:00", "ref:DK:cvr": "21579343", "ref:DK:cvr:pnummer": "1005036333", "website": "https://www.facebook.com/pages/Cafe-Lystig/263383627062137"}}, {"type": "node", "id": 1828989455, "lat": 55.693679, "lon": 12.5427877, "tags": {"alt_name": "Terroiristen vinbar", "amenity": "bar", "fvst:navnelbnr": "118574", "name": "Terroiristen", "opening_hours": "Tu-Th 12:00-18:00; Fr 12:00-19:00; Sa 11:00-18:00", "ref:DK:cvr": "31052262", "ref:DK:cvr:pnummer": "1014685169", "website": "https://www.terroiristen.dk/", "wheelchair": "no"}}, {"type": "node", "id": 1841849012, "lat": 55.6783941, "lon": 12.5004033, "tags": {"alt_name": "Domdal", "amenity": "bar", "check_date": "2022-03-30", "fvst:navnelbnr": "713999", "name": "Domdal Bodega", "phone": "+45 38711509", "ref:DK:cvr": "38239597", "smoking": "yes"}}, {"type": "node", "id": 1862807125, "lat": 55.6537447, "lon": 12.5909462, "tags": {"amenity": "bar", "description": "V\u00e6rtshus for beboere p\u00e5 Gr\u00f8njordskollegiet", "fvst:name": "Hatten Gr\u00f8njordskollegiet", "fvst:navnelbnr": "111826", "name": "Hatten Bar", "operator": "Gr\u00f8njordskollegiet", "ref:DK:cvr": "10801958"}}, {"type": "node", "id": 1905725548, "lat": 55.6966311, "lon": 12.5808134, "tags": {"air_conditioning": "no", "alt_name": "Vinstuen Femmeren", "amenity": "bar", "fvst:navnelbnr": "116239", "indoor_seating": "yes", "name": "Femmeren Jazzv\u00e6rtshus", "opening_hours": "16:00-01:00, Sa 15:00-01:00, Su 15:00-24:00", "outdoor_seating": "no", "payment:credit_cards": "yes", "payment:debit_cards": "yes", "phone": "+45 35261958", "ref:DK:cvr": "31317207", "smoking": "yes", "website": "https://www.femmeren.dk/", "wheelchair": "limited"}}, {"type": "node", "id": 1982704546, "lat": 55.7029825, "lon": 12.5372678}, {"type": "node", "id": 1982704551, "lat": 55.7029896, "lon": 12.5374706}, {"type": "node", "id": 1982704593, "lat": 55.7032135, "lon": 12.5373879}, {"type": "node", "id": 2008179830, "lat": 55.6859481, "lon": 12.5523945, "tags": {"amenity": "bar", "fvst:navnelbnr": "509492", "name": "Dupong", "outdoor_seating": "no", "ref:DK:cvr": "33864922", "ref:DK:cvr:pnummer": "1017038652", "smoking": "no"}}, {"type": "node", "id": 2014805166, "lat": 55.6858796, "lon": 12.5523207, "tags": {"alt_name": "\u00d8lsnedkernes Klub Bar", "amenity": "bar", "contact:facebook": "https://www.facebook.com/olsnedkeren/", "contact:instagram": "https://www.instagram.com/olsnedkeren/", "drink:beer": "served", "email": "baren@olsnedkeren.dk", "fvst:navnelbnr": "505533", "min_age": "18", "name": "\u00d8lsnedkeren", "opening_hours": "Mo-We 14:00-24:00, Th-Sa 14:00-02:00", "outdoor_seating": "no", "ref:DK:cvr": "33276249", "ref:DK:cvr:pnummer": "1016491892", "website": "https://olsnedkeren.dk/", "wheelchair": "limited"}}, {"type": "node", "id": 2020615652, "lat": 55.6687256, "lon": 12.559701, "tags": {"amenity": "bar", "fvst:navnelbnr": "118305", "name": "Bakken", "opening_hours": "Th 21:00-05:00; Fr-Sa 20:00-05:00", "ref:DK:cvr": "32656587", "ref:DK:cvr:pnummer": "1015720626", "website": "http://bakkenkbh.dk"}}, {"type": "node", "id": 2036051372, "lat": 55.6818289, "lon": 12.5633186, "tags": {"alt_name": "Smuggler Imports", "amenity": "bar", "fvst:navnelbnr": "761398", "internet_access": "wlan", "name": "Gorki", "opening_hours": "Tu-Sa 15:00-24:00", "phone": "+45 40562193", "product": "beer", "ref:DK:cvr": "38904205", "shop": "alcohol", "website": "http://www.smuggler.dk/", "wheelchair": "no"}}, {"type": "node", "id": 2102142194, "lat": 55.7048999, "lon": 12.5776915, "tags": {"air_conditioning": "no", "amenity": "bar", "fvst:navnelbnr": "573060", "indoor_seating": "yes", "name": "TAP10", "opening_hours": "Tu-Th 14:00-24:00, Fr-Sa 14:00-02:00; week 30-31 off", "outdoor_seating": "yes", "payment:credit_cards": "yes", "payment:debit_cards": "yes", "phone": "+45 61724487", "ref:DK:cvr": "25499646", "ref:DK:cvr:pnummer": "1017082651", "smoking": "no", "website": "http://bunkerbeer.dk/14/index.php/da/olbaren-tap10", "wheelchair": "no"}}, {"type": "node", "id": 2102146391, "lat": 55.7058942, "lon": 12.5786014, "tags": {"air_conditioning": "no", "amenity": "bar", "fvst:name": "Connie b", "fvst:navnelbnr": "754101", "indoor_seating": "yes", "name": "X-pressen", "opening_hours": "Sa 12:00-22:00, Su 12:00-20:00, Mo-Fr 11:00-01:00", "outdoor_seating": "yes", "payment:credit_cards": "yes", "payment:debit_cards": "yes", "ref:DK:cvr": "20521031", "smoking": "yes", "wheelchair": "no"}}, {"type": "node", "id": 2120271818, "lat": 55.7063599, "lon": 12.5833171, "tags": {"air_conditioning": "no", "amenity": "bar", "fvst:navnelbnr": "529031", "indoor_seating": "yes", "name": "Bassinet", "opening_hours": "PH,Mo-Su 09:00-24:00", "outdoor_seating": "no", "payment:credit_cards": "yes", "payment:debit_cards": "yes", "ref:DK:cvr": "27382363", "ref:DK:cvr:pnummer": "1018524275", "smoking": "yes", "source": "Fugro (2005)", "wheelchair": "no"}}, {"type": "node", "id": 2120271819, "lat": 55.7068296, "lon": 12.5857491, "tags": {"air_conditioning": "no", "alt_name": "FRIHAVNEN", "amenity": "bar", "fvst:navnelbnr": "553683", "indoor_seating": "yes", "name": "Frihavnskroen", "opening_hours": "Mo-We 12:00-22:00; Th 12:00-24:00; Fr 12:00-02:00; Sa 11:00-02:00; Su 11:00-20:00", "outdoor_seating": "yes", "payment:credit_cards": "yes", "payment:debit_cards": "yes", "ref:DK:cvr": "34709343", "smoking": "yes", "source": "Fugro (2005)", "wheelchair": "no"}}, {"type": "node", "id": 2121839393, "lat": 55.6751567, "lon": 12.5476811, "tags": {"amenity": "bar", "contact:email": "vinstue90@mail.dk", "fvst:navnelbnr": "112834", "name": "Vinstue 90", "opening_hours": "Su-We 11:00-01:00, Th-Sa 11:00-02:00", "phone": "+45 33318490", "ref:DK:cvr": "26452961", "ref:DK:cvr:pnummer": "1008932537", "smoking": "yes", "source": "Fugro (2005)", "wheelchair": "no", "wikidata": "Q12341137"}}, {"type": "node", "id": 2144156629, "lat": 55.6573694, "lon": 12.6036199, "tags": {"amenity": "pub", "fvst:navnelbnr": "669978", "name": "Cafe Sundbyvester", "ref:DK:cvr": "36454415", "ref:DK:cvr:pnummer": "1019955520", "website": "http://cafesundbyvester.dk/"}}, {"type": "node", "id": 2156654226, "lat": 55.6744834, "lon": 12.5512432, "tags": {"amenity": "bar", "email": "amigobar@os.dk", "fvst:navnelbnr": "111881", "name": "Amigo Bar", "phone": "+45 3321 4915", "ref:DK:cvr": "14951881", "ref:DK:cvr:pnummer": "1000834597", "smoking": "yes"}}, {"type": "node", "id": 2163836323, "lat": 55.688325, "lon": 12.5598233, "tags": {"amenity": "pub", "fvst:navnelbnr": "113804", "name": "Understellet", "opening_hours": "Mo-Su 17:00-05:00", "phone": "+45 35 37 04 70", "ref:DK:cvr": "18437198", "ref:DK:cvr:pnummer": "1003438739", "smoking": "isolated", "sport": "table_soccer", "table_soccer": "italian", "website": "http://www.understellet.dk/", "wheelchair": "no"}}, {"type": "node", "id": 2165235074, "lat": 55.681795, "lon": 12.5709215, "tags": {"amenity": "bar", "fvst:name": "MC KO APS", "fvst:navnelbnr": "576972", "name": "The Globe", "ref:DK:cvr": "20042877", "ref:DK:cvr:pnummer": "1004279501", "website": "https://www.the-globe.dk/"}}, {"type": "node", "id": 2229062918, "lat": 55.6946522, "lon": 12.543239, "tags": {"amenity": "bar", "food": "yes", "fvst:navnelbnr": "522017", "indoor_seating": "yes", "internet_access": "wlan", "internet_access:fee": "no", "internet_access:ssid": "Mikkeller_Friends", "name": "Mikkeller & Friends", "opening_hours": "Fr-Sa 12:00-24:00; Su 12:00-22:00; Mo-Th 14:00-24:00", "outdoor_seating": "yes", "phone": "+45 35 83 10 20", "ref:DK:cvr": "34895023", "ref:DK:cvr:pnummer": "1018153633", "website": "https://mikkeller.com/locations/mikkeller-and-friends", "wheelchair": "no"}}, {"type": "node", "id": 2338189050, "lat": 55.6733748, "lon": 12.5517592}, {"type": "node", "id": 2338189058, "lat": 55.6732493, "lon": 12.5516709}, {"type": "node", "id": 2338189065, "lat": 55.6732082, "lon": 12.5517698}, {"type": "node", "id": 2338189077, "lat": 55.6733669, "lon": 12.5516622}, {"type": "node", "id": 2343690852, "lat": 55.6962633, "lon": 12.5750656, "tags": {"amenity": "bar", "check_date": "2022-05-25", "fvst:navnelbnr": "658922", "name": "S\u00f8ernes \u00d8lbar", "ref:DK:cvr": "36717009", "ref:DK:cvr:pnummer": "1020329935", "smoking": "no", "website": "http://soernesoelbar.dk"}}, {"type": "node", "id": 2523038593, "lat": 55.6777292, "lon": 12.5784331, "tags": {"amenity": "bar", "drink:cocktail": "served", "fvst:navnelbnr": "543600", "name": "Little Green Door", "opening_hours": "16:00-01:00,Fr-Sa 16:00-02:00,Su-Tu off", "phone": "+45 31737354", "ref:DK:cvr": "35256008", "ref:DK:cvr:pnummer": "1018548247", "website": "http://madamchu.dk"}}, {"type": "node", "id": 2543973526, "lat": 55.6801316, "lon": 12.5761475, "tags": {"age_limit": "23", "amenity": "bar", "fvst:navnelbnr": "732139", "name": "The Jane", "note": "15% discount on all cocktails!", "opening_hours": "Th 20:00+; Fr 16:00+; Sa 20:00+", "payment:bitcoin": "yes", "phone": "+45 69 69 60 00", "ref:DK:cvr": "35485708", "ref:DK:cvr:pnummer": "1022243507", "website": "https://www.thejane.dk/", "yelp": "http://www.yelp.com/biz/the-jane-k%C3%B8benhavn-k"}}, {"type": "node", "id": 2599935006, "lat": 55.6766934, "lon": 12.5766194, "tags": {"alt_name": "Ruby Cocktailbar", "amenity": "bar", "facebook": "https://www.facebook.com/rubykbh", "fvst:navnelbnr": "119264", "name": "Ruby", "opening_hours": "Mo-Sa 16:00-02:00, Su 18:00-02:00", "phone": "+45 33931203", "ref:DK:cvr": "32290140", "website": "https://rby.dk/"}}, {"type": "node", "id": 2837243901, "lat": 55.6781561, "lon": 12.5698566, "tags": {"amenity": "bar", "fvst:navnelbnr": "115459", "name": "Floss", "ref:DK:cvr": "13220034", "ref:DK:cvr:pnummer": "1020634983", "smoking": "yes", "wheelchair": "limited"}}, {"type": "node", "id": 2855855758, "lat": 55.676199, "lon": 12.571519, "tags": {"amenity": "pub", "contact:facebook": "https://www.facebook.com/taphouse.dk/", "contact:foursquare": "https://foursquare.com/v/taphouse/5311e1ab498e444e2f4ea063", "email": "kontakt@taphouse.dk", "fvst:navnelbnr": "543684", "internet_access": "wlan", "internet_access:fee": "no", "name": "Taphouse", "opening_hours": "Mo-Th 15:00-02:00; Fr-Sa 12:00-02:00; Su 12:00-24:00", "phone": "+4588876543", "ref:DK:cvr": "35140905", "ref:DK:cvr:pnummer": "1018340948", "smoking": "no", "website": "https://taphouse.dk/", "wheelchair": "no"}}, {"type": "node", "id": 3106600429, "lat": 55.6626284, "lon": 12.6043899, "tags": {"amenity": "pub", "fvst:navnelbnr": "112175", "name": "Amagerhylden", "phone": "+45 32542800", "website": "http://www.amagerhylden.dk/"}}, {"type": "node", "id": 3286415949, "lat": 55.6738535, "lon": 12.5437949, "tags": {"amenity": "pub", "fvst:navnelbnr": "570657", "name": "Frederik VI", "opening_hours": "Su-Th 11:00-01:00, Fr-Sa 11:00-02:00", "phone": "+45 3331 3338", "ref:DK:cvr": "21821993", "ref:DK:cvr:pnummer": "1020381155", "smoking": "no", "website": "https://www.frederik-vi.dk/", "wheelchair": "no"}}, {"type": "node", "id": 3312007936, "lat": 55.6731978, "lon": 12.5516753}, {"type": "node", "id": 3312007937, "lat": 55.6731996, "lon": 12.5517704}, {"type": "node", "id": 3372385620, "lat": 55.684032, "lon": 12.5674679, "tags": {"amenity": "pub", "fvst:navnelbnr": "515180", "name": "S\u00f8ren Ged's Garage", "opening_hours": "Mo-We 11:00-02:00,Th-Sa 11:00-05:00, Su 11:00-02:00", "ref:DK:cvr": "29208263", "ref:DK:cvr:pnummer": "1017685739", "website": "https://www.s\u00f8rengedsgarage.dk/", "wheelchair": "no"}}, {"type": "node", "id": 3372385621, "lat": 55.6846268, "lon": 12.5675944, "tags": {"alt_name": "Barkowski Bar", "amenity": "bar", "check_date": "2020-12-15", "fvst:navnelbnr": "521282", "name": "Barkowski", "opening_hours": "Tu-We 16:00-24:00, Th 14:00-02:00, Fr 14:00-05:00, Sa 13:00-05:00, Su 14:00-02:00", "phone": "+45 30 66 85 34", "ref:DK:cvr": "34904693", "ref:DK:cvr:pnummer": "1018195212", "website": "https://barkowskibar.dk/"}}, {"type": "node", "id": 3404320523, "lat": 55.67991, "lon": 12.52178, "tags": {"alt_name": "Caf\u00e9 Sekseren", "amenity": "bar", "fvst:name": "Caf\u00e9 Sekseren (Caf\u00e9 6eren)", "fvst:navnelbnr": "763354", "name": "Caf\u00e96'eren", "ref:DK:cvr": "39780097", "smoking": "yes"}}, {"type": "node", "id": 3404321016, "lat": 55.67744, "lon": 12.5699, "tags": {"amenity": "pub", "fvst:navnelbnr": "519972", "name": "Musen & Elefanten", "opening_hours": "Th 16:00-04:00,Fr-Sa 16:00-05:00", "payment:bitcoin": "yes", "phone": "+45 26712779", "ref:DK:cvr": "34703086", "ref:DK:cvr:pnummer": "1018064096", "website": "https://musen-og-elefanten.dk/"}}, {"type": "node", "id": 3404321298, "lat": 55.671218, "lon": 12.5604749, "tags": {"amenity": "bar", "fvst:navnelbnr": "115610", "name": "Spunk Bar", "ref:DK:cvr": "24214583", "ref:DK:cvr:pnummer": "1006414760"}}, {"type": "node", "id": 3404321338, "lat": 55.67592, "lon": 12.56586, "tags": {"amenity": "bar", "fvst:navnelbnr": "762392", "name": "The Shamrock Inn", "opening_hours": "Mo 15:00-02:00,Tu 15:00-01:01; We 15:00-02:00,Th 15:00-03:00,Fr 12:30-05:00,Sa 13:30-05:00, Su 15:00-01:00", "ref:DK:cvr": "34594791", "ref:DK:cvr:pnummer": "1023922211", "website": "https://theshamrockinn.dk/"}}, {"type": "node", "id": 3404342223, "lat": 55.6740948, "lon": 12.5499759, "tags": {"amenity": "bar", "fvst:navnelbnr": "119665", "name": "Falernum", "ref:DK:cvr": "31178851", "ref:DK:cvr:pnummer": "1016162252", "wheelchair": "no"}}, {"type": "node", "id": 3404342229, "lat": 55.6749832, "lon": 12.519322, "tags": {"alt_name": "Gravens Rand", "amenity": "bar", "check_date": "2021-10-29", "fvst:navnelbnr": "714239", "name": "Fasan Bodega", "opening_hours": "11:00-02:00", "ref:DK:cvr": "38747479", "smoking": "yes"}}, {"type": "node", "id": 3418798611, "lat": 55.6497326, "lon": 12.4907666, "tags": {"amenity": "pub", "fvst:navnelbnr": "109634", "name": "Harrestrup Kro", "ref:DK:cvr": "10769639", "ref:DK:cvr:pnummer": "1002901150"}}, {"type": "node", "id": 3473014569, "lat": 55.6876177, "lon": 12.5469304, "tags": {"amenity": "bar", "check_date": "2020-12-13", "drink:beer": "yes", "name": "K\u00f8lsters Tolv Haner", "name:es": "K\u00f8lsters Tolv Haner", "opening_hours": "Mo-Su 15:00-24:00", "phone": "+45 32209484", "wheelchair": "no"}}, {"type": "node", "id": 3529010440, "lat": 55.6731985, "lon": 12.5517167}, {"type": "node", "id": 3545260204, "lat": 55.7053238, "lon": 12.4783422, "tags": {"amenity": "pub", "fvst:navnelbnr": "111274", "name": "Caf\u00e9 Kilden", "ref:DK:cvr": "27202063", "ref:DK:cvr:pnummer": "1009923183", "source": "survey"}}, {"type": "node", "id": 3656367927, "lat": 55.701174, "lon": 12.551194, "tags": {"amenity": "bar", "fvst:navnelbnr": "715239", "name": "Kl\u00f8r Dame", "opening_hours": "Mo-Su 09:00-24:00", "outdoor_seating": "yes", "ref:DK:cvr": "30623126", "ref:DK:cvr:pnummer": "1018356356", "smoking": "yes", "wheelchair": "limited"}}, {"type": "node", "id": 3772456953, "lat": 55.6793579, "lon": 12.5749273, "tags": {"amenity": "bar", "fvst:navnelbnr": "543663", "name": "B\u00e6st", "opening_hours": "Th 20:00-02:00, Fr-Sa 18:00-05:00", "ref:DK:cvr": "34476519", "ref:DK:cvr:pnummer": "1017757292", "website": "http://xn--bst-yla.dk/"}}, {"type": "node", "id": 3773087372, "lat": 55.6798954, "lon": 12.5777113, "tags": {"amenity": "bar", "fvst:navnelbnr": "556537", "name": "Balderdash", "opening_hours": "We 17:00-01:00, Th 17:00-02:00, Fr 17:00-02:00, Sa 17:00-02:00", "phone": "+45 53107885", "ref:DK:cvr": "35851992", "ref:DK:cvr:pnummer": "1019390221"}}, {"type": "node", "id": 3773088919, "lat": 55.6776418, "lon": 12.5780759, "tags": {"amenity": "bar", "fvst:navnelbnr": "714992", "name": "The Bird and the Churchkey", "opening_hours": "Tu-We 16:00-01:00, Th 16:00-02:00, Fr-Sa 16:00-04:00", "ref:DK:cvr": "31946212", "ref:DK:cvr:pnummer": "1015029982", "website": "https://thebird.dk/"}}, {"type": "node", "id": 3798400056, "lat": 55.7170154, "lon": 12.5775907, "tags": {"amenity": "pub", "fvst:navnelbnr": "114702", "name": "Svane Pub", "ref:DK:cvr": "29031088", "ref:DK:cvr:pnummer": "1006364468"}}, {"type": "node", "id": 3898784968, "lat": 55.6685278, "lon": 12.5599599, "tags": {"amenity": "pub", "facebook": "https://www.facebook.com/warpigsbrewpub", "fvst:navnelbnr": "560424", "internet_access": "wlan", "internet_access:fee": "no", "microbrewery": "yes", "name": "Warpigs Brewpub", "opening_hours": "Mo-Th 11:00-24:00, Fr-Sa 11:00-02:00, Su 11:00-22:00", "outdoor_seating": "yes", "phone": "+45 43484848", "ref:DK:cvr": "35864237", "ref:DK:cvr:pnummer": "1019887754", "takeaway": "yes", "website": "https://warpigs.dk/", "wheelchair": "yes"}}, {"type": "node", "id": 3980811452, "lat": 55.6390797, "lon": 12.5786657, "tags": {"amenity": "bar", "drink:cocktail": "served", "fvst:navnelbnr": "665290", "level": "23", "name": "SUKAIBA Copenhagen", "opening_hours": "16:00-24:00, Fr-Sa 16:00-01:00, Su-Tu off", "ref:DK:cvr": "37939838", "ref:DK:cvr:pnummer": "1021672552", "website": "https://sukaiba.dk/"}}, {"type": "node", "id": 3998863476, "lat": 55.7080609, "lon": 12.5227165, "tags": {"amenity": "pub", "fvst:navnelbnr": "553379", "name": "Pool-pub", "ref:DK:cvr": "32349323", "ref:DK:cvr:pnummer": "1019460734"}}, {"type": "node", "id": 4001191951, "lat": 55.6577871, "lon": 12.6026326, "tags": {"amenity": "pub", "name": "Tingkroen", "opening_hours": "Mo-Sa 10:00-24:00; Su10:00-22:00"}}, {"type": "node", "id": 4004309539, "lat": 55.6660287, "lon": 12.5976758, "tags": {"alt_name": "Boulevarden", "amenity": "bar", "fvst:navnelbnr": "1202480", "name": "Boulevard Bodega", "opening_hours": "Mo-Th 12:00-21:00; Fr,Sa 12:00-22:00; Su 12:00-17:00", "ref:DK:cvr": "39969386", "ref:DK:cvr:pnummer": "1027803675"}}, {"type": "node", "id": 4004309540, "lat": 55.665826, "lon": 12.578507, "tags": {"amenity": "bar", "fvst:navnelbnr": "917481", "indoor_seating": "yes", "name": "Amager Bryghus Taproom Bryggen", "opening_hours": "Mo,Tu 15:00-23:00; We,Th 15:00-24:00; Fr,Sa 14:00-24:00; Su 13:00-21:00", "outdoor_seating": "yes", "smoking": "outside", "wheelchair": "no"}}, {"type": "node", "id": 4004994253, "lat": 55.6705, "lon": 12.531252, "tags": {"amenity": "bar", "cuisine": "steak", "fvst:navnelbnr": "118558", "indoor_seating": "yes", "name": "BAR 23", "opening_hours": "17:00-23:00; Su 17:00-22:00", "outdoor_seating": "no", "phone": "+45 33227007", "ref:DK:cvr": "27168329", "ref:DK:cvr:pnummer": "1015846107", "website": "https://www.pilekroen.dk/"}}, {"type": "node", "id": 4007452347, "lat": 55.6878755, "lon": 12.5702372, "tags": {"access": "private", "amenity": "bar", "check_date": "2022-06-08", "description": "studentercafe", "name": "Jacques D.", "ref:DK:cvr": "17331531", "website": "http://jacquesd.dk/"}}, {"type": "node", "id": 4007480897, "lat": 55.678419, "lon": 12.554611, "tags": {"amenity": "bar", "fvst:navnelbnr": "761790", "name": "Salon 39", "ref:DK:cvr": "39713039", "ref:DK:cvr:pnummer": "1023781855"}}, {"type": "node", "id": 4007924197, "lat": 55.6875478, "lon": 12.5470834, "tags": {"amenity": "bar", "fvst:navnelbnr": "721138", "name": "Tolv Haner", "opening_hours": "Fr,Sa 14:00-01:00, Mo-Th 15:00-24:00, Su 14:00-22:00", "ref:DK:cvr": "38749862", "ref:DK:cvr:pnummer": "1022585289", "wheelchair": "no"}}, {"type": "node", "id": 4011854861, "lat": 55.6787957, "lon": 12.5722433, "tags": {"amenity": "bar", "fvst:name": "Gringo Bar", "fvst:navnelbnr": "714364", "name": "Gringo Bar", "ref:DK:cvr": "38311484", "ref:DK:cvr:pnummer": "1022069779"}}, {"type": "node", "id": 4012815277, "lat": 55.675205, "lon": 12.586764, "tags": {"amenity": "bar", "fvst:name": "Kayak Bar Kajen Drift ApS", "fvst:navnelbnr": "734284", "name": "Kayak Bar", "opening_hours": "Jun-Aug", "phone": "+45 3049 0013", "ref:DK:cvr": "39120992", "ref:DK:cvr:pnummer": "1023073826", "website": "https://kayakbar.dk/"}}, {"type": "node", "id": 4015755825, "lat": 55.6788802, "lon": 12.5700342, "tags": {"amenity": "bar", "fvst:navnelbnr": "924220", "name": "Born 12/ Jailhouse CPH", "note": "gay", "phone": "+45 33152255", "ref:DK:cvr": "39980665", "ref:DK:cvr:pnummer": "1024081784", "website": "https://jailhousecph.dk/"}}, {"type": "node", "id": 4016613453, "lat": 55.6736038, "lon": 12.5660687, "tags": {"amenity": "bar", "fvst:navnelbnr": "535576", "name": "Nimb Bar", "ref:DK:cvr": "10404916", "ref:DK:cvr:pnummer": "1018808885", "wheelchair": "yes"}}, {"type": "node", "id": 4018484845, "lat": 55.6786438, "lon": 12.5924247, "tags": {"amenity": "bar", "fvst:navnelbnr": "530990", "name": "Den Vandrette Vinbar", "opening_hours": "17:00-23:00; Su-Mo off", "phone": "+45 7214 8228", "ref:DK:cvr": "35226532", "ref:DK:cvr:pnummer": "1018414526", "website": "https://www.denvandrette.dk/"}}, {"type": "node", "id": 4072657122, "lat": 55.6811399, "lon": 12.5830687, "tags": {"amenity": "bar", "fvst:navnelbnr": "636689", "name": "Lou Lou"}}, {"type": "node", "id": 4170928389, "lat": 55.6983406, "lon": 12.5503495, "tags": {"amenity": "bar", "fvst:name": "Mimers", "fvst:navnelbnr": "720541", "name": "Mimers Bodega", "opening_hours": "Mo-We 12:00-22:00; Th-Fr 12:00-24:00; Sa 11:00-24:00; Su 11:00-22:00", "phone": "+45 35823868", "ref:DK:cvr": "24994740", "wheelchair": "limited"}}, {"type": "node", "id": 4176224497, "lat": 55.6307122, "lon": 12.601182, "tags": {"amenity": "bar", "fvst:navnelbnr": "765451", "name": "Oksen Bodega", "opening_hours": "Mo-We,Sa 10:00-21:00, Fr 10:00-24:00; Th 10:00-22:00; Su 11:00-18:00", "ref:DK:cvr": "39843684", "ref:DK:cvr:pnummer": "1023933388"}}, {"type": "node", "id": 4176224501, "lat": 55.7052697, "lon": 12.504513, "tags": {"amenity": "pub", "brewery": "yes", "fvst:navnelbnr": "559958", "name": "Br\u00f8nsh\u00f8j Borger Kro", "outdoor_seating": "yes", "phone": "+45 38605849", "ref:DK:cvr": "36128658", "ref:DK:cvr:pnummer": "1019870959"}}, {"type": "node", "id": 4261837130, "lat": 55.6775664, "lon": 12.5811954, "tags": {"alt_name": "Cava Bar - Playa", "amenity": "bar", "fvst:navnelbnr": "920651", "name": "El Cava", "ref:DK:cvr": "40847618", "ref:DK:cvr:pnummer": "1025116239"}}, {"type": "node", "id": 4314938978, "lat": 55.6834282, "lon": 12.5882248, "tags": {"amenity": "bar", "cuisine": "tapas", "fvst:navnelbnr": "533980", "name": "Dahl & Dahl", "payment:credit_cards": "yes", "phone": "+45 2896 4006", "ref:DK:cvr": "34719519", "ref:DK:cvr:pnummer": "1017989835", "toilets": "yes", "website": "https://www.dahl-dahl.dk/"}}, {"type": "node", "id": 4314938985, "lat": 55.681141, "lon": 12.5892433, "tags": {"amenity": "bar", "fvst:navnelbnr": "561054", "name": "Nebbiolo Winebar", "opening_hours": "Mo-Su 15:00-24:00", "outdoor_seating": "yes", "payment:credit_cards": "yes", "ref:DK:cvr": "36538775", "ref:DK:cvr:pnummer": "1020144838", "toilets": "yes", "website": "https://nebbiolo-winebar.com/", "wheelchair": "no"}}, {"type": "node", "id": 4318843593, "lat": 55.6773717, "lon": 12.576151, "tags": {"amenity": "bar", "description": "Oldest Jazz venue in Copenhagen; Live Music Fr-Sa 22-02 & Su 21-01", "fvst:navnelbnr": "113195", "name": "La Fontaine", "opening_hours": "Mo-Su 20:00-05:00", "ref:DK:cvr": "19139182", "ref:DK:cvr:pnummer": "1003696106", "website": "http://www.lafontaine.dk"}}, {"type": "node", "id": 4328324015, "lat": 55.6801783, "lon": 12.5760558, "tags": {"amenity": "bar", "fvst:navnelbnr": "523694", "name": "Str\u00f8m Bar", "opening_hours": "Mo-Th 18:00-01:00; Fr 16:00-03:00; Sa 18:00-03:00", "ref:DK:cvr": "34576688", "ref:DK:cvr:pnummer": "1017674745"}}, {"type": "node", "id": 4328366224, "lat": 55.6885594, "lon": 12.5621783, "tags": {"amenity": "bar", "fvst:navnelbnr": "577195", "name": "LuLu", "opening_hours": "16:00-24:00, Fr-Sa 16:00-02:00", "phone": "+45 31905293", "ref:DK:cvr": "36926333", "ref:DK:cvr:pnummer": "1020495282", "website": "http://luluravnsborggade.dk/"}}, {"type": "node", "id": 4328446361, "lat": 55.6805372, "lon": 12.5833472, "tags": {"amenity": "bar", "cuisine": "champagne", "fvst:navnelbnr": "514726", "indoor_seating": "yes", "name": "Balthazar Champagne Bar", "opening_hours": "Th,Fr 16:00-02:00, Sa 14:00-02:00", "outdoor_seating": "no", "ref:DK:cvr": "33368127", "ref:DK:cvr:pnummer": "1016571446", "smoking": "no", "wheelchair": "no"}}, {"type": "node", "id": 4330130939, "lat": 55.677305, "lon": 12.5815953, "tags": {"amenity": "bar", "cuisine": "winebar", "fvst:navnelbnr": "114994", "name": "Ved Stranden 10", "opening_hours": "12:00-22:00; Su off", "phone": "+45 35424040", "ref:DK:cvr": "32476767", "ref:DK:cvr:pnummer": "1015575553", "website": "http://www.vedstranden10.dk/", "wikidata": "Q28225883"}}, {"type": "node", "id": 4330149164, "lat": 55.701691, "lon": 12.572473, "tags": {"amenity": "bar", "name": "Parken Bar", "smoking": "no", "wheelchair": "limited"}}, {"type": "node", "id": 4331204551, "lat": 55.6727762, "lon": 12.5668858, "tags": {"amenity": "bar", "fvst:navnelbnr": "531950", "name": "Alpehytten Biergarten I", "operator": "Tivoli", "ref:DK:cvr": "10404916", "ref:DK:cvr:pnummer": "1002894451"}}, {"type": "node", "id": 4332887875, "lat": 55.7018848, "lon": 12.5587662}, {"type": "node", "id": 4332887876, "lat": 55.7018937, "lon": 12.5586717}, {"type": "node", "id": 4332887877, "lat": 55.7019116, "lon": 12.5586923}, {"type": "node", "id": 4332887878, "lat": 55.7019346, "lon": 12.5585591}, {"type": "node", "id": 4340872469, "lat": 55.7018981, "lon": 12.5585174}, {"type": "node", "id": 4341862603, "lat": 55.6665245, "lon": 12.5980941, "tags": {"alt_name": "Det Argentinske Vinhus", "amenity": "bar", "drink:wine": "served", "fvst:navnelbnr": "505432", "name": "Vinos Los Andes", "opening_hours": "Th-Sa 13:00-19:00", "ref:DK:cvr": "31363497", "ref:DK:cvr:pnummer": "1014331804", "shop": "alcohol", "website": "http://detargentinskevinhus.dk/"}}, {"type": "node", "id": 4341862608, "lat": 55.6735506, "lon": 12.5661, "tags": {"amenity": "bar", "fvst:navnelbnr": "118085", "name": "Nimb Bar og Banquet 1. sal", "ref:DK:cvr": "10404916", "ref:DK:cvr:pnummer": "1018808885"}}, {"type": "node", "id": 4387037489, "lat": 55.7009477, "lon": 12.53982, "tags": {"amenity": "bar", "fvst:navnelbnr": "111198", "name": "Hvepsereden", "ref:DK:cvr": "11750540", "ref:DK:cvr:pnummer": "1000269411"}}, {"type": "node", "id": 4387720611, "lat": 55.6869467, "lon": 12.5594593, "tags": {"amenity": "bar", "fvst:name": "Vinhanen S.M.B.A.", "fvst:navnelbnr": "523380", "name": "Vinhanen", "ref:DK:cvr": "35039244", "ref:DK:cvr:pnummer": "1018260383"}}, {"type": "node", "id": 4389544398, "lat": 55.6752253, "lon": 12.5612217, "tags": {"amenity": "bar", "fvst:navnelbnr": "114231", "name": "Imperial Bio \u00d8vre Bar", "ref:DK:cvr": "28344910", "ref:DK:cvr:pnummer": "1003023344", "wheelchair": "no"}}, {"type": "node", "id": 4393824871, "lat": 55.6665002, "lon": 12.5179276, "tags": {"amenity": "bar", "fvst:navnelbnr": "505679", "name": "Caf\u00e9 Casual", "opening_hours:signed": "no", "ref:DK:cvr": "34073465", "ref:DK:cvr:pnummer": "1017310964", "wheelchair": "no"}}, {"type": "node", "id": 4402401626, "lat": 55.6537587, "lon": 12.616193, "tags": {"amenity": "pub", "fvst:navnelbnr": "501919", "name": "Cafe Smil", "opening_hours": "10:00-02:00", "ref:DK:cvr": "27753493", "ref:DK:cvr:pnummer": "1017110434"}}, {"type": "node", "id": 4402639618, "lat": 55.687061, "lon": 12.549315, "tags": {"amenity": "bar", "fvst:navnelbnr": "564445", "name": "Kocktails", "ref:DK:cvr": "36543868", "ref:DK:cvr:pnummer": "1020163239", "website": "http://kocktails.dk/"}}, {"type": "node", "id": 4424224041, "lat": 55.671923, "lon": 12.545461, "tags": {"amenity": "bar", "fvst:navnelbnr": "551620", "name": "Portvinsbaren", "opening_hours": "Th 17:00-23:00; Fr,Sa 17:00-01:00", "ref:DK:cvr": "35814329", "ref:DK:cvr:pnummer": "1019255332", "website": "http://vinhulen.dk/portvinsbaren.asp", "wheelchair": "no"}}, {"type": "node", "id": 4434074415, "lat": 55.674011, "lon": 12.53701, "tags": {"amenity": "bar", "fvst:navnelbnr": "111602", "name": "Betty Nansen Teaterbar", "ref:DK:cvr": "17358944", "ref:DK:cvr:pnummer": "1017103918"}}, {"type": "node", "id": 4436431103, "lat": 55.6882823, "lon": 12.5618437, "tags": {"amenity": "pub", "fvst:navnelbnr": "564835", "name": "Det ny Scala", "phone": "+45 35370015", "ref:DK:cvr": "31460549", "ref:DK:cvr:pnummer": "1019094398", "wheelchair": "no"}}, {"type": "node", "id": 4436489213, "lat": 55.6593211, "lon": 12.590689, "tags": {"amenity": "bar", "fvst:name": "IT- Universitetet Studentercaf\u00e9en Scrollbar", "fvst:navnelbnr": "115893", "name": "Scrollbar", "opening_hours:signed": "no", "operator": "IT-Universitetet", "ref:DK:cvr": "28235283", "ref:DK:cvr:pnummer": "1011069254", "toilets:wheelchair": "yes", "wheelchair": "yes"}}, {"type": "node", "id": 4460697811, "lat": 55.66769, "lon": 12.5589, "tags": {"amenity": "bar", "facebook": "https://www.facebook.com/Mesteren-L\u00e6rlingen-215687798449433/", "fvst:navnelbnr": "115011", "name": "Mesteren & L\u00e6rlingen", "outdoor_seating": "yes", "payment:credit_cards": "yes", "phone": "+45 32152483", "ref:DK:cvr": "32082645", "ref:DK:cvr:pnummer": "1015381783", "smoking": "yes", "toilets": "yes"}}, {"type": "node", "id": 4487041295, "lat": 55.6386512, "lon": 12.5778012, "tags": {"amenity": "bar", "fvst:name": "Bella Center The Front", "fvst:navnelbnr": "665277", "operator": "The Front"}}, {"type": "node", "id": 4489479205, "lat": 55.680944, "lon": 12.571343, "tags": {"amenity": "bar", "fvst:navnelbnr": "662261", "name": "Boulebar Sankt Petri", "opening_hours": "15:00-23:00; Th 15:00-24:00; Fr 11:00-24:00; Sa 10:00-24:00; Su 10:00-23:00", "phone": "+45 82820800", "pitch": "boules", "ref:DK:cvr": "37452939", "ref:DK:cvr:pnummer": "1021592613", "toilets:wheelchair": "yes", "website": "https://www.boulebar.dk/", "wheelchair": "yes"}}, {"type": "node", "id": 4515551975, "lat": 55.6654227, "lon": 12.5488293, "tags": {"amenity": "bar", "fvst:navnelbnr": "109917", "name": "Boulevarden", "phone": "+45 3331 8303", "ref:DK:cvr": "13633142", "ref:DK:cvr:pnummer": "1000597724"}}, {"type": "node", "id": 4516721448, "lat": 55.6913826, "lon": 12.5446425, "tags": {"amenity": "bar", "fvst:navnelbnr": "123647", "name": "Kronborggade 3", "opening_hours": "Mo-Sa 16:00-22:00", "ref:DK:cvr": "33305427", "ref:DK:cvr:pnummer": "1016548940"}}, {"type": "node", "id": 4536946914, "lat": 55.6832898, "lon": 12.5879807, "tags": {"amenity": "bar", "cocktails": "yes", "fvst:navnelbnr": "653451", "name": "The Barbershop", "phone": "+45 52633777", "ref:DK:cvr": "37615552", "ref:DK:cvr:pnummer": "1021339977", "website": "https://www.thebarbershop.dk/"}}, {"type": "node", "id": 4557103882, "lat": 55.6674267, "lon": 12.5972606, "tags": {"amenity": "bar", "contact:email": "haabetbodegabar@gmail.com", "contact:phone": "+45 31 24 08 19", "fvst:navnelbnr": "950362", "name": "Haabet Bodega Bar", "opening_hours": "Mo-Th 16:00-24:00, Fr-Sa 15:00-24:00", "ref:DK:cvr": "37149020", "ref:DK:cvr:pnummer": "1025906043", "smoking": "yes", "survey:date": "2020-04-30", "website": "http://haabetbodegabar.dk/"}}, {"type": "node", "id": 4557357752, "lat": 55.7095672, "lon": 12.5772166, "tags": {"air_conditioning": "no", "amenity": "bar", "comment": "lots of interesting beers on tap", "drink:beer": "served", "fvst:name": "Smuggler Imports", "fvst:navnelbnr": "761397", "indoor_seating": "yes", "name": "Kompasset \u00d8lbar", "opening_hours": "Tu-Th 16:00-23:45, Fr 14:00-02:00, Su 16:00-21:00; Mo,Sa 16:00-02:00", "outdoor_seating": "no", "payment:credit_cards": "yes", "payment:debit_cards": "yes", "phone": "+45 23 25 00 69", "ref:DK:cvr": "38904205", "ref:DK:cvr:pnummer": "1023910647", "smoking": "no", "wheelchair": "limited"}}, {"type": "node", "id": 4558623948, "lat": 55.7037321, "lon": 12.5900305, "tags": {"air_conditioning": "no", "amenity": "bar", "fvst:navnelbnr": "113714", "indoor_seating": "yes", "name": "Chevy's", "opening_hours": "Mo-We 10:00-22:00; Th-Sa 10:00-02:00; Su off", "outdoor_seating": "yes", "payment:credit_cards": "yes", "payment:debit_cards": "yes", "ref:DK:cvr": "55802955", "ref:DK:cvr:pnummer": "1009966060", "smoking": "yes", "wheelchair": "no"}}, {"type": "node", "id": 4558623949, "lat": 55.7035356, "lon": 12.5899983, "tags": {"air_conditioning": "no", "alt_name": "Cafe Fyret", "amenity": "bar", "check_date": "2020-12-08", "fvst:navnelbnr": "665069", "indoor_seating": "yes", "name": "Fyret", "opening_hours:signed": "no", "outdoor_seating": "yes", "ref:DK:cvr": "20521031", "ref:DK:cvr:pnummer": "1021908203", "smoking": "yes", "wheelchair": "no"}}, {"type": "node", "id": 4564289856, "lat": 55.6787144, "lon": 12.580105, "tags": {"amenity": "bar", "fvst:navnelbnr": "923586", "level": "-1", "name": "Christian IV", "ref:DK:cvr": "40364927", "website": "http://kantbar.dk/"}}, {"type": "node", "id": 4565750915, "lat": 55.6849767, "lon": 12.4854659, "tags": {"amenity": "bar", "fvst:navnelbnr": "564640", "name": "Dams\u00f8 cafe", "opening_hours": "Mo-Su 10:00-24:00", "ref:DK:cvr": "33395450", "ref:DK:cvr:pnummer": "1016598263"}}, {"type": "node", "id": 4565943949, "lat": 55.686311, "lon": 12.4908342, "tags": {"amenity": "bar", "fvst:navnelbnr": "710742", "name": "Jydepotten bodega", "opening_hours": "Mo-Su 11:00-22:00", "ref:DK:cvr": "38060791", "ref:DK:cvr:pnummer": "1021837926", "website": "http://www.jydepotten2720.dk/"}}, {"type": "node", "id": 4575935451, "lat": 55.6752286, "lon": 12.5724216, "tags": {"amenity": "bar", "fvst:navnelbnr": "669713", "name": "Southern Cross Pub", "payment:credit_cards": "yes", "phone": "+45 3311 0939", "ref:DK:cvr": "33758871", "toilets": "yes", "website": "https://www.southerncross.dk/"}}, {"type": "node", "id": 4593377197, "lat": 55.7180564, "lon": 12.5563256, "tags": {"amenity": "bar", "check_date": "2021-10-05", "fvst:navnelbnr": "1210818", "indoor_seating": "yes", "name": "Emdrup Bodega", "opening_hours": "Su-Th 10:00-22:00, Fr,Sa 10:00-01:00", "outdoor_seating": "no", "payment:credit_cards": "yes", "payment:debit_cards": "yes", "ref:DK:cvr": "39028182", "ref:DK:cvr:pnummer": "1027535611", "smoking": "yes", "wheelchair": "yes"}}, {"type": "node", "id": 4593377199, "lat": 55.671211, "lon": 12.5496708, "tags": {"amenity": "bar", "contact:instagram": "httpd://www.instagram.com/ancestralebra", "email": "spis@ancestrale.dk", "facebook": "https://www.facebook.com/Ancestralebar/", "fvst:navnelbnr": "958384", "name": "Ancestrale", "opening_hours": "Mo-Th 16:00-23:00; Fr-Sa 16:00-24:00", "phone": "+4560407414", "ref:DK:cvr": "41474068", "ref:DK:cvr:pnummer": "1025977730", "website": "http://ancestrale.dk"}}, {"type": "node", "id": 4593377213, "lat": 55.6665259, "lon": 12.5530327, "tags": {"amenity": "bar", "facebook": "https://www.facebook.com/Rbabarrab", "fvst:navnelbnr": "962630", "indoor_seating": "yes", "name": "Rbabarrab", "opening_hours": "Fr,Sa 11:00-03:00, Su-Th 11:00-24:00", "outdoor_seating": "no", "phone": "+45 24 26 92 91", "ref:DK:cvr": "37613932", "wheelchair": "limited"}}, {"type": "node", "id": 4597094626, "lat": 55.6253234, "lon": 12.573264, "tags": {"amenity": "bar", "fvst:navnelbnr": "671525", "name": "The Bar 3.4", "ref:DK:cvr": "34082375", "ref:DK:cvr:pnummer": "1017338184", "wheelchair": "yes"}}, {"type": "node", "id": 4597095790, "lat": 55.6254657, "lon": 12.573272, "tags": {"amenity": "bar", "fvst:navnelbnr": "671523", "name": "The Bar 1.6", "ref:DK:cvr": "34082375", "ref:DK:cvr:pnummer": "1017338184"}}, {"type": "node", "id": 4607024012, "lat": 55.6256755, "lon": 12.5735999, "tags": {"amenity": "bar", "fvst:navnelbnr": "671521", "name": "The Bar 1.1", "ref:DK:cvr": "34082375", "ref:DK:cvr:pnummer": "1017338184", "wheelchair": "yes"}}, {"type": "node", "id": 4612847341, "lat": 55.6257302, "lon": 12.5734422, "tags": {"amenity": "bar", "fvst:navnelbnr": "671519", "name": "The Bar 0.3", "ref:DK:cvr": "34082375", "ref:DK:cvr:pnummer": "1017338184"}}, {"type": "node", "id": 4613151856, "lat": 55.6256575, "lon": 12.5734046, "tags": {"amenity": "bar", "fvst:navnelbnr": "671522", "name": "The Bar 1.3", "ref:DK:cvr": "34082375", "ref:DK:cvr:pnummer": "1017338184"}}, {"type": "node", "id": 4613174572, "lat": 55.624693, "lon": 12.5731751, "tags": {"amenity": "bar", "fvst:navnelbnr": "672173", "name": "Absolut", "ref:DK:cvr": "34082375", "ref:DK:cvr:pnummer": "1017338184"}}, {"type": "node", "id": 4613175037, "lat": 55.6247868, "lon": 12.5736874, "tags": {"amenity": "bar", "fvst:navnelbnr": "672171", "name": "Nicolas Feuillatte Bar", "ref:DK:cvr": "34082375", "ref:DK:cvr:pnummer": "1017338184"}}, {"type": "node", "id": 4614994170, "lat": 55.6256545, "lon": 12.5739759, "tags": {"amenity": "bar", "fvst:navnelbnr": "671524", "name": "The Bar 3.2", "ref:DK:cvr": "34082375", "ref:DK:cvr:pnummer": "1017338184"}}, {"type": "node", "id": 4619690320, "lat": 55.683378, "lon": 12.5875853, "tags": {"amenity": "bar", "fvst:name": "ReKom \u00d8st Drift Bravo", "fvst:navnelbnr": "671128", "name": "Dandy", "phone": "+45 3173 7304", "ref:DK:cvr": "37582220", "ref:DK:cvr:pnummer": "1021301716", "website": "http://dandycph.com/"}}, {"type": "node", "id": 4622355403, "lat": 55.6758239, "lon": 12.5930274, "tags": {"amenity": "bar", "name": "Kanalens K\u00e6lder", "opening_hours:signed": "no"}}, {"type": "node", "id": 4673538603, "lat": 55.6558235, "lon": 12.6098903, "tags": {"amenity": "bar", "drink:wine": "served", "fvst:navnelbnr": "667771", "name": "Toto Vin- og Spisebar", "opening_hours": "Tu-Th 16:00-24:00; Fr,Sa 15:00-24:00", "ref:DK:cvr": "38026089", "ref:DK:cvr:pnummer": "1021769807"}}, {"type": "node", "id": 4673702481, "lat": 55.6977172, "lon": 12.5468341, "tags": {"amenity": "pub", "fvst:navnelbnr": "696953", "microbrewery": "yes", "name": "Brewers Inc.", "opening_hours": "Tu-Th 17:00-24:00, Fr 14:00-02:00, Sa 13:00-02:00", "ref:DK:cvr": "37811963", "ref:DK:cvr:pnummer": "1022727725", "website": "https://www.brewersinc.dk/"}}, {"type": "node", "id": 4715837029, "lat": 55.6816577, "lon": 12.584914, "tags": {"amenity": "bar", "facebook": "https://m.facebook.com/pages/category/Pub/Wall-Street-Pub-187011364648720/", "fvst:name": "T og M Partners . C/O Wall Street Pub", "fvst:navnelbnr": "697806", "name": "Wall Street Pub", "phone": "+45 33 14 77 42", "ref:DK:cvr": "25508149", "ref:DK:cvr:pnummer": "1007788157", "toilets": "yes"}}, {"type": "node", "id": 4723359794, "lat": 55.6902991, "lon": 12.5595621, "tags": {"amenity": "bar", "fvst:navnelbnr": "112070", "indoor_seating": "yes", "name": "Osborne", "outdoor_seating": "no", "ref:DK:cvr": "17581589", "ref:DK:cvr:pnummer": "1001317132", "wheelchair": "no"}}, {"type": "node", "id": 4735675880, "lat": 55.679078, "lon": 12.5690251, "tags": {"amenity": "bar", "brewery": "yes;various", "fvst:navnelbnr": "670412", "internet_access": "wlan", "name": "Peders - Pisserendens \u00f8lk\u00e6lder", "opening_hours": "Mo-Th 16:00-24:00, Fr-Sa 14:00-01:00, Su 15:00-21:00", "opening_hours:covid19": "Tu-Th 16:00-00:00, Fr-Sa 14:00-00:00", "outdoor_seating": "yes", "payment:cash": "yes", "payment:contactless": "yes", "payment:credit_cards": "yes", "ref:DK:cvr": "37880736", "ref:DK:cvr:pnummer": "1021603267", "short_name": "Peders", "website": "https://pederscph.dk/"}}, {"type": "node", "id": 4736814542, "lat": 55.68475, "lon": 12.55307, "tags": {"amenity": "bar", "drink:beer": "served", "fvst:name": "Himmeriget", "fvst:navnelbnr": "574675", "name": "Himmerriget", "opening_hours": "Mo-Sa 15:00-02:00, Su 15:00-24:00", "ref:DK:cvr": "35859659", "ref:DK:cvr:pnummer": "1020227016", "website": "http://www.himmeriget.dk/", "wheelchair": "yes"}}, {"type": "node", "id": 4736814543, "lat": 55.6960863, "lon": 12.5563343, "tags": {"alt_name": "Le Pinard", "amenity": "bar", "fvst:navnelbnr": "119746", "name": "Sabot\u00f8ren", "ref:DK:cvr": "30890094", "ref:DK:cvr:pnummer": "1014528101", "wheelchair": "limited"}}, {"type": "node", "id": 4819022400, "lat": 55.7065226, "lon": 12.5339291, "tags": {"amenity": "bar", "fvst:navnelbnr": "715860", "name": "Nordvest \u00d8lbar", "opening_hours": "Tu,Th,Sa 17:00-24:00; Su,Mo off; Fr 15:00-24:00", "ref:DK:cvr": "32996477", "ref:DK:cvr:pnummer": "1021711167", "wheelchair": "no"}}, {"type": "node", "id": 4853958380, "lat": 55.7012655, "lon": 12.5809301, "tags": {"air_conditioning": "no", "amenity": "bar", "check_date:opening_hours": "2022-03-17", "fvst:name": "\u00d8sterbros Perle ( JP Trading )", "fvst:navnelbnr": "699870", "indoor_seating": "yes", "name": "\u00d8sterbros Perle", "opening_hours": "Mo-We 10:00-24:00, Th-Sa 10:00-01:00, Su 10:00-24:00", "outdoor_seating": "yes", "ref:DK:cvr": "36423765", "smoking": "yes", "wheelchair": "limited"}}, {"type": "node", "id": 4873747936, "lat": 55.6782794, "lon": 12.5716769, "tags": {"alt_name": "Miami Bar", "amenity": "bar", "fvst:navnelbnr": "807546", "name": "Miami", "ref:DK:cvr": "37060178"}}, {"type": "node", "id": 4873751689, "lat": 55.6783238, "lon": 12.5718204, "tags": {"amenity": "bar", "fvst:navnelbnr": "510135", "name": "The Drunken Flamingo", "ref:DK:cvr": "34477795", "ref:DK:cvr:pnummer": "1017620610"}}, {"type": "node", "id": 4873752562, "lat": 55.6793474, "lon": 12.57495, "tags": {"access:covid19": "no", "amenity": "bar", "name": "Francis Pony", "website": "https://francispony.dk/"}}, {"type": "node", "id": 4873752563, "lat": 55.6800374, "lon": 12.5748724, "tags": {"alt_name": "Farfars bodega & dans", "amenity": "bar", "fvst:navnelbnr": "522836", "name": "Farfar", "phone": "+45 69692023", "ref:DK:cvr": "34736871", "website": "https://farfarbodega.dk/"}}, {"type": "node", "id": 4878969893, "lat": 55.6820368, "lon": 12.5711571, "tags": {"amenity": "bar", "fvst:navnelbnr": "515809", "name": "Rhino Bar", "ref:DK:cvr": "33582676", "ref:DK:cvr:pnummer": "1016832266", "source": "Kaart Ground Survey 2017", "wheelchair": "no"}}, {"type": "node", "id": 4881595007, "lat": 55.6770916, "lon": 12.5755872, "tags": {"amenity": "bar", "fvst:navnelbnr": "903121", "name": "Comedy Zoo Cafe", "opening_hours": "Mo-We 16:30-23:00; Th-Sa 12:00-01:00", "ref:DK:cvr": "39338556", "ref:DK:cvr:pnummer": "1023353055", "website": "http://comedyzoocafe.dk/"}}, {"type": "node", "id": 4883742491, "lat": 55.6722464, "lon": 12.5558859, "tags": {"amenity": "bar", "fvst:navnelbnr": "540110", "level": "1", "name": "Zeppelin", "phone": "+45 71 70 36 66", "ref:DK:cvr": "35659641", "ref:DK:cvr:pnummer": "1019119765", "source": "Kaart Ground Survey 2017", "website": "http://zeppelincph.dk/welcome-to-copenhagens-finest-rock-bar/", "wheelchair": "no"}}, {"type": "node", "id": 4884364116, "lat": 55.6707018, "lon": 12.4894709, "tags": {"amenity": "bar", "fvst:navnelbnr": "113879", "name": "\u00c5lholm Borgerkro", "ref:DK:cvr": "18426501", "ref:DK:cvr:pnummer": "1015899669"}}, {"type": "node", "id": 4885853427, "lat": 55.6828585, "lon": 12.4840667, "tags": {"amenity": "bar", "fvst:navnelbnr": "561775", "name": "Kvali Bar", "ref:DK:cvr": "26305632", "ref:DK:cvr:pnummer": "1008756860"}}, {"type": "node", "id": 4885854560, "lat": 55.6919259, "lon": 12.4837107, "tags": {"amenity": "bar", "fvst:navnelbnr": "740618", "name": "St\u00f8vlen", "ref:DK:cvr": "39017083", "ref:DK:cvr:pnummer": "1022935417", "source": "Kaart Ground Survey 2017"}}, {"type": "node", "id": 4886121139, "lat": 55.7102686, "lon": 12.4768678, "tags": {"amenity": "bar", "fvst:navnelbnr": "965016", "name": "Husum Bodega", "ref:DK:cvr": "41464046", "source": "Kaart Ground Survey 2017"}}, {"type": "node", "id": 4886334451, "lat": 55.6866636, "lon": 12.5321631, "tags": {"amenity": "bar", "check_date": "2021-10-29", "fvst:navnelbnr": "634370", "name": "Alhambra Pub", "ref:DK:cvr": "41635223", "ref:DK:cvr:pnummer": "1026220374", "source": "Kaart Ground Survey 2017"}}, {"type": "node", "id": 4888056705, "lat": 55.6714963, "lon": 12.5722551, "tags": {"amenity": "bar", "fvst:navnelbnr": "795212", "name": "Byens bodega", "opening_hours": "Mo-Th 14:00-02:00, Fr 12:00-02:00, Sa 15:00-02:00", "ref:DK:cvr": "34098166", "ref:DK:cvr:pnummer": "1017391999"}}, {"type": "node", "id": 4888404365, "lat": 55.6903189, "lon": 12.5720729, "tags": {"amenity": "bar", "fvst:navnelbnr": "714724", "name": "S\u00f8hesten", "outdoor_seating": "no", "ref:DK:cvr": "36444851", "ref:DK:cvr:pnummer": "1020427082", "website": "http://soehestenbar.dk/"}}, {"type": "node", "id": 4949586070, "lat": 55.6814236, "lon": 12.5712927, "tags": {"amenity": "bar", "fvst:navnelbnr": "709814", "name": "No Stress Bar DK", "ref:DK:cvr": "38517511", "ref:DK:cvr:pnummer": "1022304018", "website": "http://www.nostressbar.dk/"}}, {"type": "node", "id": 4959567011, "lat": 55.6717677, "lon": 12.552406, "tags": {"amenity": "bar", "cuisine": "champagne;cocktails", "fvst:navnelbnr": "798024", "name": "The reception", "ref:DK:cvr": "38509527", "ref:DK:cvr:pnummer": "1022343129", "website": "http://www.thereception.dk/"}}, {"type": "node", "id": 4961986412, "lat": 55.7126998, "lon": 12.5768917, "tags": {"air_conditioning": "no", "amenity": "bar", "brewery": "Vestfyen;Carlberg", "check_date": "2022-05-22", "fvst:navnelbnr": "1217742", "indoor_seating": "yes", "name": "Cafe Strandlyst", "opening_hours": "12:00-24:00; Mo off", "outdoor_seating": "no", "payment:credit_cards": "yes", "payment:debit_cards": "yes", "ref:DK:cvr": "42811114", "ref:DK:cvr:pnummer": "1027697956", "smoking": "outside", "wheelchair": "yes"}},