{"version": 0.6, "generator": "Overpass API 0.7.60.2 e4cf9f7a", "osm3s": {"timestamp_osm_base": "2023-05-22T07:44:51Z", "copyright": "The data included in this document is from www.openstreetmap.org. The data is made available under ODbL."}, "elements": [{"type": "node", "id": 280809193, "lat": 55.6691735, "lon": 12.5802893, "tags": {"amenity": "pub", "fvst:navnelbnr": "721054", "name": "Cafe Langebro", "opening_hours": "Mo-Th 11:00-02:00, Fr-Sa 11:00-03:00, Su 11:00-20:00", "phone": "+45 32 95 85 91", "ref:DK:cvr": "27040365", "ref:DK:cvr:pnummer": "1000441581", "website": "http://cafelangebro.dk"}}, {"type": "node", "id": 746251105, "lat": 55.6675771, "lon": 12.5780731, "tags": {"amenity": "bar", "fvst:navnelbnr": "112526", "name": "Caf\u00e9 Haraldsborg", "opening_hours": "Mo-Su 10:00-02:00", "phone": "+45 32 54 69 02", "ref:DK:cvr": "18021102", "ref:DK:cvr:pnummer": "1002973532"}}, {"type": "node", "id": 746251544, "lat": 55.6678361, "lon": 12.5785286, "tags": {"amenity": "bar", "fvst:navnelbnr": "113152", "name": "Isbj\u00f8rnen", "phone": "+45 32 96 96 40", "ref:DK:cvr": "20634596", "ref:DK:cvr:pnummer": "1000415388"}}, {"type": "node", "id": 899199394, "lat": 55.6644904, "lon": 12.5838891, "tags": {"amenity": "pub", "fvst:navnelbnr": "955186", "name": "Artillericafeen", "opening_hours": "Mo-Sa 10:00-02:00; Su off", "ref:DK:cvr": "18525739", "ref:DK:cvr:pnummer": "1025718883"}}, {"type": "node", "id": 1358980017, "lat": 55.6643102, "lon": 12.6032096, "tags": {"alt_name": "Jaguar Bodega", "amenity": "bar", "fvst:navnelbnr": "115280", "name": "Jaguaren", "ref:DK:cvr": "25524705", "wheelchair": "yes"}}, {"type": "node", "id": 1358983535, "lat": 55.664579, "lon": 12.604527, "tags": {"amenity": "pub", "fvst:navnelbnr": "525601", "name": "Bootleggers Craft Beer Bar", "opening_hours": "Mo-We 15:00-24:00, Th 15:00-01:00, Fr 14:00-02:00, Sa 13:00-02:00, Su 14:00-23:00", "phone": "+45 61776111", "smoking": "outside", "website": "https://www.facebook.com/bootamager/", "wheelchair": "limited"}}, {"type": "node", "id": 1595066426, "lat": 55.6644556, "lon": 12.598079, "tags": {"amenity": "pub", "fvst:navnelbnr": "1120264", "name": "Lassie Bar", "ref:DK:cvr": "40975829", "ref:DK:cvr:pnummer": "1025287114"}}, {"type": "node", "id": 1822849398, "lat": 55.6583402, "lon": 12.6028151, "tags": {"amenity": "pub", "fvst:navnelbnr": "114811", "name": "Caf\u00e9 Lystig", "opening_hours": "Fr 16:00-04:00, Sa 18:00-04:00", "ref:DK:cvr": "21579343", "ref:DK:cvr:pnummer": "1005036333", "website": "https://www.facebook.com/pages/Cafe-Lystig/263383627062137"}}, {"type": "node", "id": 1862807125, "lat": 55.6537447, "lon": 12.5909462, "tags": {"amenity": "bar", "description": "V\u00e6rtshus for beboere p\u00e5 Gr\u00f8njordskollegiet", "fvst:name": "Hatten Gr\u00f8njordskollegiet", "fvst:navnelbnr": "111826", "name": "Hatten Bar", "operator": "Gr\u00f8njordskollegiet", "ref:DK:cvr": "10801958"}}, {"type": "node", "id": 2144156629, "lat": 55.6573694, "lon": 12.6036199, "tags": {"amenity": "pub", "fvst:navnelbnr": "669978", "name": "Cafe Sundbyvester", "ref:DK:cvr": "36454415", "ref:DK:cvr:pnummer": "1019955520", "website": "http://cafesundbyvester.dk/"}}, {"type": "node", "id": 3106600429, "lat": 55.6626284, "lon": 12.6043899, "tags": {"amenity": "pub", "fvst:navnelbnr": "112175", "name": "Amagerhylden", "phone": "+45 32542800", "website": "http://www.amagerhylden.dk/"}}, {"type": "node", "id": 4001191951, "lat": 55.6577871, "lon": 12.6026326, "tags": {"amenity": "pub", "name": "Tingkroen", "opening_hours": "Mo-Sa 10:00-24:00; Su10:00-22:00"}}, {"type": "node", "id": 4004309539, "lat": 55.6660287, "lon": 12.5976758, "tags": {"alt_name": "Boulevarden", "amenity": "bar", "fvst:navnelbnr": "1202480", "name": "Boulevard Bodega", "opening_hours": "Mo-Th 12:00-21:00; Fr,Sa 12:00-22:00; Su 12:00-17:00", "ref:DK:cvr": "39969386", "ref:DK:cvr:pnummer": "1027803675"}}, {"type": "node", "id": 4004309540, "lat": 55.665826, "lon": 12.578507, "tags": {"amenity": "bar", "fvst:navnelbnr": "917481", "indoor_seating": "yes", "name": "Amager Bryghus Taproom Bryggen", "opening_hours": "Mo,Tu 15:00-23:00; We,Th 15:00-24:00; Fr,Sa 14:00-24:00; Su 13:00-21:00", "outdoor_seating": "yes", "smoking": "outside", "wheelchair": "no"}}, {"type": "node", "id": 4341862603, "lat": 55.6665245, "lon": 12.5980941, "tags": {"alt_name": "Det Argentinske Vinhus", "amenity": "bar", "check_date:opening_hours": "2023-05-14", "drink:wine": "served", "fvst:navnelbnr": "505432", "name": "Vinos Los Andes", "opening_hours": "Th-Sa 13:00-19:00", "opening_hours:signed": "no", "ref:DK:cvr": "31363497", "ref:DK:cvr:pnummer": "1014331804", "shop": "alcohol", "website": "http://detargentinskevinhus.dk/"}}, {"type": "node", "id": 4436489213, "lat": 55.6593211, "lon": 12.590689, "tags": {"amenity": "bar", "fvst:name": "IT- Universitetet Studentercaf\u00e9en Scrollbar", "fvst:navnelbnr": "115893", "name": "Scrollbar", "opening_hours:signed": "no", "operator": "IT-Universitetet", "ref:DK:cvr": "28235283", "ref:DK:cvr:pnummer": "1011069254", "toilets:wheelchair": "yes", "wheelchair": "yes"}}, {"type": "node", "id": 4557103882, "lat": 55.6674267, "lon": 12.5972606, "tags": {"amenity": "bar", "check_date": "2023-04-23", "contact:email": "haabetbodegabar@gmail.com", "contact:phone": "+45 31 24 08 19", "fvst:navnelbnr": "950362", "name": "Haabet Bodega Bar", "opening_hours": "Mo-Th 16:00-24:00, Fr-Sa 15:00-24:00", "ref:DK:cvr": "37149020", "ref:DK:cvr:pnummer": "1025906043", "smoking": "yes", "website": "http://haabetbodegabar.dk/"}}, {"type": "node", "id": 4673538603, "lat": 55.6558235, "lon": 12.6098903, "tags": {"amenity": "bar", "drink:wine": "served", "fvst:navnelbnr": "667771", "name": "Toto Vin- og Spisebar", "opening_hours": "Tu-Th 16:00-24:00; Fr,Sa 15:00-24:00", "ref:DK:cvr": "38026089", "ref:DK:cvr:pnummer": "1021769807"}}, {"type": "node", "id": 5041756421, "lat": 55.6655547, "lon": 12.6135528, "tags": {"amenity": "bar", "brewery": "yes", "check_date": "2023-04-11", "fvst:navnelbnr": "668932", "min_age": "18", "name": "Whammy Bar", "opening_hours": "Mo-Th,Su 15:00-24:00; Fr-Sa 15:00-02:00", "outdoor_seating": "yes", "payment:mastercard": "yes", "payment:visa": "yes", "ref:DK:cvr": "36963182", "ref:DK:cvr:pnummer": "1020647848", "smoking": "no", "website": "https://www.whammybar.dk/", "wheelchair": "no"}}, {"type": "node", "id": 5125941664, "lat": 55.6687889, "lon": 12.574102, "tags": {"amenity": "bar", "fee": "yes", "fvst:name": "Copenhagen Marriott Exce. Lounge", "fvst:navnelbnr": "716273", "name": "Copenhagen Marriott Excecutive Lounge", "ref:DK:cvr": "37939838", "ref:DK:cvr:pnummer": "1022838489"}}, {"type": "node", "id": 5713943875, "lat": 55.6657426, "lon": 12.5785514, "tags": {"amenity": "bar", "fvst:navnelbnr": "740620", "name": "Beer and the Bean", "ref:DK:cvr": "37685232", "ref:DK:cvr:pnummer": "1021426969"}}, {"type": "node", "id": 5976423685, "lat": 55.6545487, "lon": 12.6103787, "tags": {"amenity": "bar", "fvst:name": "Amagerbrogade 160", "fvst:navnelbnr": "957574", "name": "Hop House", "ref:DK:cvr": "38965646", "ref:DK:cvr:pnummer": "1022876186", "website": "https://www.hophouse.dk/"}}, {"type": "node", "id": 6570561561, "lat": 55.6671999, "lon": 12.5726521, "tags": {"amenity": "bar", "cuisine": "pizza;sandwich", "fvst:navnelbnr": "755618", "name": "Green Island of Copenhagen", "outdoor_seating": "yes", "payment:credit_cards": "yes", "phone": "+45 30295094", "ref:DK:cvr": "31219434", "ref:DK:cvr:pnummer": "1014217718", "seasonal": "summer", "toilets": "yes", "website": "https://www.green-island.dk/"}}, {"type": "node", "id": 7833198996, "lat": 55.664762, "lon": 12.599882, "tags": {"amenity": "bar", "fvst:navnelbnr": "942043", "name": "Bulleye", "opening_hours": "Tu-Th 16:00-22:00; Fr-Su 14:00-22:00", "phone": "+45 20738046", "ref:DK:cvr": "41066121", "ref:DK:cvr:pnummer": "1025407152"}}, {"type": "node", "id": 8115001031, "lat": 55.662793, "lon": 12.591147, "tags": {"access:covid19": "private", "amenity": "bar", "fvst:navnelbnr": "735007", "name": "Roland Bar", "ref:DK:cvr": "34773041"}}, {"type": "node", "id": 8117585781, "lat": 55.667841, "lon": 12.57367, "tags": {"amenity": "bar", "fvst:navnelbnr": "936516", "name": "Svajerbar", "ref:DK:cvr": "26718899"}}, {"type": "node", "id": 8117585795, "lat": 55.6577524, "lon": 12.6064559, "tags": {"amenity": "bar", "fvst:navnelbnr": "118706", "name": "Caf\u00e9 Englandshus", "opening_hours": "Mo-Su 10:00-02:00", "ref:DK:cvr": "29683190"}}, {"type": "node", "id": 8119008300, "lat": 55.6593805, "lon": 12.6024967, "tags": {"amenity": "bar", "fvst:navnelbnr": "115213", "name": "Fair Play", "ref:DK:cvr": "20492546"}}, {"type": "node", "id": 8119008303, "lat": 55.6616273, "lon": 12.6074349, "tags": {"amenity": "bar", "fvst:navnelbnr": "1250394", "name": "Caf\u00e9 Josephine", "ref:DK:cvr": "43039822", "ref:DK:cvr:pnummer": "1027976596", "smoking": "yes"}}, {"type": "node", "id": 8119008305, "lat": 55.6644295, "lon": 12.6081392, "tags": {"amenity": "bar", "fvst:navnelbnr": "113126", "name": "Caf\u00e9 Guldhuset", "opening_hours": "Mo-Su 15:00-22:00", "ref:DK:cvr": "27207308"}}, {"type": "node", "id": 8137328706, "lat": 55.6565637, "lon": 12.6124467, "tags": {"amenity": "bar", "fvst:navnelbnr": "733028", "name": "Caf\u00e9 34", "ref:DK:cvr": "39033232", "ref:DK:cvr:pnummer": "1022953636"}}, {"type": "node", "id": 8137328708, "lat": 55.6545648, "lon": 12.6118398, "tags": {"amenity": "bar", "fvst:navnelbnr": "924250", "name": "Caf\u00e9 H\u00f8jden", "ref:DK:cvr": "38908790", "ref:DK:cvr:pnummer": "1022808040", "smoking": "yes"}}, {"type": "node", "id": 8137328711, "lat": 55.6672646, "lon": 12.5857953, "tags": {"amenity": "bar", "fvst:navnelbnr": "539636", "name": "Radisson Blu Scandinavia Hotel Red 7 Bar", "ref:DK:cvr": "35255109", "ref:DK:cvr:pnummer": "1018543636"}}, {"type": "node", "id": 8146445532, "lat": 55.661655, "lon": 12.610258, "tags": {"amenity": "bar", "fvst:navnelbnr": "670167", "name": "Postbodegaen", "ref:DK:cvr": "52666155", "ref:DK:cvr:pnummer": "1019682044", "smoking": "yes"}}, {"type": "node", "id": 8146445534, "lat": 55.6625711, "lon": 12.6041188, "tags": {"amenity": "bar", "fvst:name": "Heibir / Amagerhylden", "fvst:navnelbnr": "735183", "name": "Amagerhylden", "ref:DK:cvr": "32652212", "ref:DK:cvr:pnummer": "1015704795", "smoking": "separated", "website": "http://www.amagerhylden.dk/"}}, {"type": "node", "id": 8146445535, "lat": 55.6663302, "lon": 12.6120932, "tags": {"amenity": "bar", "fvst:name": "V\u00c6RTSHUS;CAPRI/HOLMBLADET-BODEGA", "fvst:navnelbnr": "927613", "name": "Holmbladet", "opening_hours": "Su-Mo 12:00-00:00; Tu-Th 12:00-02:00; Fr-Sa 12:00-03:00", "ref:DK:cvr": "37604410", "ref:DK:cvr:pnummer": "1021347481", "website": "https://holmbladet.dk/"}}, {"type": "node", "id": 8146445536, "lat": 55.65831, "lon": 12.608439, "tags": {"amenity": "bar", "description": "Big beer selection, bottle or draft", "drink:beer": "served", "fvst:navnelbnr": "913147", "name": "Blue Raven", "opening_hours": "Tu-Sa 15:00-22:00; Su-Mo off", "opening_hours:covid19": "off", "ref:DK:cvr": "39823705", "ref:DK:cvr:pnummer": "1023910787", "website": "http://www.blueravenbar.dk/"}}, {"type": "node", "id": 8184307396, "lat": 55.6596717, "lon": 12.6061264, "tags": {"amenity": "bar", "fvst:navnelbnr": "667449", "name": "Old Irish Pub Amagerbrogade", "phone": "+45 28401601", "ref:DK:cvr": "35028692", "ref:DK:cvr:pnummer": "1021427620", "website": "https://oldirishpub.dk/pub/amager/"}}, {"type": "node", "id": 8184307398, "lat": 55.657739, "lon": 12.58859, "tags": {"access": "customers", "amenity": "bar", "fvst:navnelbnr": "962319", "name": "Danmarks Radio DR-Byen", "ref:DK:cvr": "62786515", "ref:DK:cvr:pnummer": "1008875630"}}, {"type": "node", "id": 8185482851, "lat": 55.6674446, "lon": 12.5857524, "tags": {"amenity": "bar", "fvst:navnelbnr": "539631", "name": "Radisson Blu Scandinavia Hotel Bus Stop Bar", "ref:DK:cvr": "35255109", "ref:DK:cvr:pnummer": "1018543636"}}, {"type": "node", "id": 8185482852, "lat": 55.6627137, "lon": 12.5893639, "tags": {"access": "private", "amenity": "bar", "fvst:navnelbnr": "735008", "name": "TORS / BARstionen", "ref:DK:cvr": "38103199", "ref:DK:cvr:pnummer": "1021832185"}}, {"type": "node", "id": 8207872776, "lat": 55.659827, "lon": 12.610603, "tags": {"amenity": "bar", "fvst:navnelbnr": "937749", "name": "Cafe Sundet", "ref:DK:cvr": "34469091", "ref:DK:cvr:pnummer": "1017582263", "smoking": "yes", "sport": "billiards"}}, {"type": "node", "id": 8485655410, "lat": 55.6572408, "lon": 12.5890611, "tags": {"amenity": "bar", "check_date:opening_hours": "2022-10-04", "name": "Klangbar", "opening_hours:covid19": "closed", "opening_hours:signed": "no"}}, {"type": "node", "id": 10835692124, "lat": 55.6566443, "lon": 12.6089874, "tags": {"amenity": "bar", "fvst:navnelbnr": "1269994", "name": "Kjaff Bar", "ref:DK:cvr": "43540858", "ref:DK:cvr:pnummer": "1028611990"}}]}